[
  {
    "country": "GB",
    "place_alt": "London",
    "latitude": "51.514248",
    "tgn": "7011781",
    "place": "London",
    "id": "1",
    "type": "inhabited places",
    "longitude": "-0.093145"
  },
  {
    "country": "GB",
    "place_alt": "Greater London",
    "latitude": "51.5",
    "tgn": "7008136",
    "place": "Greater London",
    "id": "2",
    "type": "metropolitan areas",
    "longitude": "-0.1667"
  },
  {
    "country": "GB",
    "place_alt": "England",
    "latitude": "53",
    "tgn": "7002445",
    "place": "England",
    "id": "3",
    "type": "countries (sovereign states)",
    "longitude": "-2"
  },
  {
    "country": "GB",
    "place_alt": "United Kingdom",
    "latitude": "54",
    "tgn": "7008591",
    "place": "United Kingdom",
    "id": "4",
    "type": "nations",
    "longitude": "-4.5"
  },
  {
    "country": "\\N",
    "place_alt": "Europe",
    "latitude": "56.2",
    "tgn": "1000003",
    "place": "Europe",
    "id": "5",
    "type": "continents",
    "longitude": "15.016"
  },
  {
    "country": "\\N",
    "place_alt": "World",
    "latitude": "\\N",
    "tgn": "7029392",
    "place": "World",
    "id": "6",
    "type": "facets (controlled vocabulary)",
    "longitude": "\\N"
  },
  {
    "country": "ID",
    "place_alt": "\\N",
    "latitude": "3.5833",
    "tgn": "1078112",
    "place": "Medan",
    "id": "7",
    "type": "inhabited places",
    "longitude": "98.65"
  },
  {
    "country": "UA",
    "place_alt": "\\N",
    "latitude": "49.2333",
    "tgn": "1061236",
    "place": "Vinnitsa",
    "id": "8",
    "type": "inhabited places",
    "longitude": "28.4833"
  },
  {
    "country": "NL",
    "place_alt": "Amsterdam",
    "latitude": "52.35",
    "tgn": "7006952",
    "place": "Amsterdam",
    "id": "9",
    "type": "inhabited places",
    "longitude": "4.916667"
  },
  {
    "country": "RU",
    "place_alt": "Saint Petersburg",
    "latitude": "59.8833",
    "tgn": "7010273",
    "place": "Sankt-Peterburg",
    "id": "10",
    "type": "inhabited places",
    "longitude": "30.25"
  },
  {
    "country": "ID",
    "place_alt": "\\N",
    "latitude": "2",
    "tgn": "1001555",
    "place": "Sumatera Utara",
    "id": "11",
    "type": "provinces",
    "longitude": "99"
  },
  {
    "country": "UA",
    "place_alt": "\\N",
    "latitude": "49",
    "tgn": "7011999",
    "place": "Vinnyts'ka Oblast'",
    "id": "12",
    "type": "oblasts",
    "longitude": "29"
  },
  {
    "country": "NL",
    "place_alt": "North Holland",
    "latitude": "52.583",
    "tgn": "7006951",
    "place": "Noord-Holland",
    "id": "13",
    "type": "provinces",
    "longitude": "4.916"
  },
  {
    "country": "RU",
    "place_alt": "Saint Petersburg",
    "latitude": "59.894444",
    "tgn": "7018216",
    "place": "Sankt-Peterburg",
    "id": "14",
    "type": "autonomous cities",
    "longitude": "30.264167"
  },
  {
    "country": "ID",
    "place_alt": "Indonesia",
    "latitude": "-5",
    "tgn": "1000116",
    "place": "Indonesia",
    "id": "15",
    "type": "nations",
    "longitude": "120"
  },
  {
    "country": "UA",
    "place_alt": "Ukraine",
    "latitude": "49",
    "tgn": "7006660",
    "place": "Ukraina",
    "id": "16",
    "type": "nations",
    "longitude": "32"
  },
  {
    "country": "NL",
    "place_alt": "Netherlands",
    "latitude": "52.5",
    "tgn": "7016845",
    "place": "Nederland",
    "id": "17",
    "type": "nations",
    "longitude": "5.75"
  },
  {
    "country": "RU",
    "place_alt": "Russia",
    "latitude": "60",
    "tgn": "7002435",
    "place": "Rossija",
    "id": "18",
    "type": "nations",
    "longitude": "47"
  },
  {
    "country": "\\N",
    "place_alt": "Asia",
    "latitude": "43.8",
    "tgn": "1000004",
    "place": "Asia",
    "id": "19",
    "type": "continents",
    "longitude": "87.633"
  },
  {
    "country": "RU",
    "place_alt": "Moscow",
    "latitude": "55.75",
    "tgn": "7012974",
    "place": "Moskva",
    "id": "20",
    "type": "inhabited places",
    "longitude": "37.7"
  },
  {
    "country": "UA",
    "place_alt": "Kiev",
    "latitude": "50.4333",
    "tgn": "7010171",
    "place": "Kiev",
    "id": "21",
    "type": "inhabited places",
    "longitude": "30.5167"
  },
  {
    "country": "NL",
    "place_alt": "\\N",
    "latitude": "52.15",
    "tgn": "7006922",
    "place": "Amersfoort",
    "id": "22",
    "type": "inhabited places",
    "longitude": "5.383333"
  },
  {
    "country": "IT",
    "place_alt": "Turin",
    "latitude": "45.05",
    "tgn": "7005688",
    "place": "Torino",
    "id": "26",
    "type": "inhabited places",
    "longitude": "7.666667"
  },
  {
    "country": "UA",
    "place_alt": "\\N",
    "latitude": "46.6333",
    "tgn": "7017285",
    "place": "Kherson",
    "id": "27",
    "type": "inhabited places",
    "longitude": "32.5833"
  },
  {
    "country": "DE",
    "place_alt": "\\N",
    "latitude": "53.583333",
    "tgn": "1041687",
    "place": "Wedel",
    "id": "28",
    "type": "inhabited places",
    "longitude": "9.716667"
  },
  {
    "country": "LT",
    "place_alt": "\\N",
    "latitude": "54.8667",
    "tgn": "7006538",
    "place": "Kaunas",
    "id": "29",
    "type": "inhabited places",
    "longitude": "23.9167"
  },
  {
    "country": "DE",
    "place_alt": "\\N",
    "latitude": "51.1667",
    "tgn": "7012844",
    "place": "Meissen",
    "id": "30",
    "type": "inhabited places",
    "longitude": "13.4167"
  },
  {
    "country": "DE",
    "place_alt": "\\N",
    "latitude": "48.766667",
    "tgn": "7004425",
    "place": "Stuttgart",
    "id": "31",
    "type": "inhabited places",
    "longitude": "9.183333"
  },
  {
    "country": "GB",
    "place_alt": "Brighton",
    "latitude": "50.833333",
    "tgn": "7011483",
    "place": "Brighton",
    "id": "32",
    "type": "inhabited places",
    "longitude": "-0.15"
  },
  {
    "country": "DE",
    "place_alt": "\\N",
    "latitude": "51.3333",
    "tgn": "7012329",
    "place": "Leipzig",
    "id": "33",
    "type": "inhabited places",
    "longitude": "12.4167"
  },
  {
    "country": "GB",
    "place_alt": "\\N",
    "latitude": "51.5",
    "tgn": "4012698",
    "place": "Kensington",
    "id": "34",
    "type": "neighborhoods",
    "longitude": "-0.1833"
  },
  {
    "country": "HU",
    "place_alt": "\\N",
    "latitude": "47.5",
    "tgn": "7006280",
    "place": "Budapest",
    "id": "35",
    "type": "inhabited places",
    "longitude": "19.05"
  },
  {
    "country": "FR",
    "place_alt": "Lille",
    "latitude": "50.632971",
    "tgn": "7008461",
    "place": "Lille",
    "id": "36",
    "type": "inhabited places",
    "longitude": "3.058585"
  },
  {
    "country": "GB",
    "place_alt": "Hove",
    "latitude": "50.833333",
    "tgn": "7011487",
    "place": "Hove",
    "id": "37",
    "type": "inhabited places",
    "longitude": "-0.183333"
  },
  {
    "country": "GB",
    "place_alt": "Birmingham",
    "latitude": "52.466667",
    "tgn": "7010955",
    "place": "Birmingham",
    "id": "39",
    "type": "inhabited places",
    "longitude": "-1.916667"
  },
  {
    "country": "FR",
    "place_alt": "\\N",
    "latitude": "48.793253",
    "tgn": "1033144",
    "place": "Fontenay-aux-Roses",
    "id": "40",
    "type": "inhabited places",
    "longitude": "2.29275"
  },
  {
    "country": "RU",
    "place_alt": "\\N",
    "latitude": "51.5667",
    "tgn": "7010280",
    "place": "Saratov",
    "id": "41",
    "type": "inhabited places",
    "longitude": "46.0333"
  },
  {
    "country": "FR",
    "place_alt": "France",
    "latitude": "46",
    "tgn": "1000070",
    "place": "France",
    "id": "42",
    "type": "nations",
    "longitude": "2"
  },
  {
    "country": "\\N",
    "place_alt": "Romania",
    "latitude": "46",
    "tgn": "1000091",
    "place": "România",
    "id": "43",
    "type": "nations",
    "longitude": "25"
  },
  {
    "country": "FR",
    "place_alt": "\\N",
    "latitude": "48.939396",
    "tgn": "7008019",
    "place": "Argenteuil",
    "id": "44",
    "type": "inhabited places",
    "longitude": "2.2367"
  },
  {
    "country": "US",
    "place_alt": "\\N",
    "latitude": "41.0667",
    "tgn": "2078710",
    "place": "Campbell",
    "id": "45",
    "type": "inhabited places",
    "longitude": "-80.5833"
  },
  {
    "country": "CH",
    "place_alt": "\\N",
    "latitude": "47.55",
    "tgn": "1063894",
    "place": "Amriswill",
    "id": "46",
    "type": "inhabited places",
    "longitude": "9.3"
  },
  {
    "country": "BE",
    "place_alt": "Brussels",
    "latitude": "50.833333",
    "tgn": "7007868",
    "place": "Bruxelles",
    "id": "47",
    "type": "inhabited places",
    "longitude": "4.333333"
  },
  {
    "country": "CH",
    "place_alt": "\\N",
    "latitude": "47.058495",
    "tgn": "7007331",
    "place": "Burgdorf",
    "id": "48",
    "type": "inhabited places",
    "longitude": "7.622139"
  },
  {
    "country": "UA",
    "place_alt": "\\N",
    "latitude": "50",
    "tgn": "7011643",
    "place": "Kharkov",
    "id": "49",
    "type": "inhabited places",
    "longitude": "36.25"
  },
  {
    "country": "RU",
    "place_alt": "\\N",
    "latitude": "50.9333",
    "tgn": "1051302",
    "place": "Chernyanka",
    "id": "50",
    "type": "inhabited places",
    "longitude": "37.8"
  },
  {
    "country": "DE",
    "place_alt": "\\N",
    "latitude": "51.333333",
    "tgn": "7005980",
    "place": "Krefeld",
    "id": "51",
    "type": "inhabited places",
    "longitude": "6.566667"
  },
  {
    "country": "CZ",
    "place_alt": "\\N",
    "latitude": "50.4833",
    "tgn": "1027221",
    "place": "Hronov",
    "id": "52",
    "type": "inhabited places",
    "longitude": "16.1833"
  },
  {
    "country": "US",
    "place_alt": "\\N",
    "latitude": "39.95",
    "tgn": "7014406",
    "place": "Philadelphia",
    "id": "53",
    "type": "inhabited places",
    "longitude": "-75.15"
  },
  {
    "country": "IT",
    "place_alt": "\\N",
    "latitude": "44.9",
    "tgn": "7005125",
    "place": "Alessandria",
    "id": "54",
    "type": "inhabited places",
    "longitude": "8.616667"
  },
  {
    "country": "IT",
    "place_alt": "\\N",
    "latitude": "45.466667",
    "tgn": "7005652",
    "place": "Novara",
    "id": "55",
    "type": "inhabited places",
    "longitude": "8.633333"
  },
  {
    "country": "FR",
    "place_alt": "\\N",
    "latitude": "43.528695",
    "tgn": "7010786",
    "place": "Aix-en-Provence",
    "id": "56",
    "type": "inhabited places",
    "longitude": "5.448791"
  },
  {
    "country": "FR",
    "place_alt": "Nîmes",
    "latitude": "43.833778",
    "tgn": "7008371",
    "place": "Nîmes",
    "id": "57",
    "type": "inhabited places",
    "longitude": "4.359623"
  },
  {
    "country": "BY",
    "place_alt": "\\N",
    "latitude": "55.1667",
    "tgn": "7010317",
    "place": "Vitebsk",
    "id": "58",
    "type": "inhabited places",
    "longitude": "30.2333"
  },
  {
    "country": "RU",
    "place_alt": "\\N",
    "latitude": "53.6",
    "tgn": "1053128",
    "place": "Buguruslan",
    "id": "59",
    "type": "inhabited places",
    "longitude": "52.5"
  },
  {
    "country": "RU",
    "place_alt": "\\N",
    "latitude": "53.75",
    "tgn": "1051851",
    "place": "Zhizdra",
    "id": "60",
    "type": "inhabited places",
    "longitude": "34.75"
  },
  {
    "country": "LT",
    "place_alt": "Lithuania",
    "latitude": "56",
    "tgn": "7006542",
    "place": "Lietuva",
    "id": "61",
    "type": "nations",
    "longitude": "24"
  },
  {
    "country": "RU",
    "place_alt": "\\N",
    "latitude": "54.65",
    "tgn": "1054250",
    "place": "Gvardeysk",
    "id": "62",
    "type": "inhabited places",
    "longitude": "21.0167"
  },
  {
    "country": "FR",
    "place_alt": "\\N",
    "latitude": "47.107491",
    "tgn": "7009418",
    "place": "Ornans",
    "id": "63",
    "type": "inhabited places",
    "longitude": "6.143058"
  },
  {
    "country": "GB",
    "place_alt": "Liverpool",
    "latitude": "53.4167",
    "tgn": "1003614",
    "place": "Liverpool",
    "id": "64",
    "type": "unitary authorities",
    "longitude": "-3"
  },
  {
    "country": "FR",
    "place_alt": "\\N",
    "latitude": "50.372362",
    "tgn": "7008458",
    "place": "Douai",
    "id": "65",
    "type": "inhabited places",
    "longitude": "3.088996"
  },
  {
    "country": "AT",
    "place_alt": "Vienna",
    "latitude": "48.2167",
    "tgn": "7003321",
    "place": "Wien",
    "id": "66",
    "type": "inhabited places",
    "longitude": "16.3667"
  },
  {
    "country": "BE",
    "place_alt": "Ghent",
    "latitude": "51.05",
    "tgn": "7007887",
    "place": "Gent",
    "id": "67",
    "type": "inhabited places",
    "longitude": "3.716667"
  },
  {
    "country": "GR",
    "place_alt": "\\N",
    "latitude": "39.366667",
    "tgn": "7011081",
    "place": "Vólos",
    "id": "68",
    "type": "inhabited places",
    "longitude": "22.945833"
  },
  {
    "country": "UA",
    "place_alt": "\\N",
    "latitude": "49.2167",
    "tgn": "1054146",
    "place": "Gradizhsk",
    "id": "70",
    "type": "inhabited places",
    "longitude": "33.1167"
  },
  {
    "country": "FR",
    "place_alt": "\\N",
    "latitude": "48.889803",
    "tgn": "7009033",
    "place": "Chatou",
    "id": "71",
    "type": "inhabited places",
    "longitude": "2.158627"
  },
  {
    "country": "FR",
    "place_alt": "\\N",
    "latitude": "43.889518",
    "tgn": "7009350",
    "place": "Mont-de-Marsan",
    "id": "72",
    "type": "inhabited places",
    "longitude": "-0.500476"
  },
  {
    "country": "NO",
    "place_alt": "Christiania (Oslo)",
    "latitude": "59.9333",
    "tgn": "7009573",
    "place": "Oslo",
    "id": "73",
    "type": "inhabited places",
    "longitude": "10.75"
  },
  {
    "country": "US",
    "place_alt": "\\N",
    "latitude": "42.8667",
    "tgn": "2068331",
    "place": "Canandaigua",
    "id": "74",
    "type": "inhabited places",
    "longitude": "-77.3333"
  },
  {
    "country": "GB",
    "place_alt": "\\N",
    "latitude": "\\N",
    "tgn": "7029246",
    "place": "Boyn Hill",
    "id": "75",
    "type": "inhabited places",
    "longitude": "\\N"
  },
  {
    "country": "FR",
    "place_alt": "\\N",
    "latitude": "49.503954",
    "tgn": "4001589",
    "place": "Blainville-Crevon",
    "id": "76",
    "type": "inhabited places",
    "longitude": "1.299521"
  },
  {
    "country": "FR",
    "place_alt": "\\N",
    "latitude": "48.869303",
    "tgn": "1032901",
    "place": "Damville",
    "id": "77",
    "type": "inhabited places",
    "longitude": "1.074575"
  },
  {
    "country": "FR",
    "place_alt": "\\N",
    "latitude": "49.5",
    "tgn": "7008927",
    "place": "Le Havre",
    "id": "78",
    "type": "inhabited places",
    "longitude": "0.133333"
  },
  {
    "country": "FR",
    "place_alt": "\\N",
    "latitude": "48.691014",
    "tgn": "1032280",
    "place": "Boussy-Saint-Antoine",
    "id": "79",
    "type": "inhabited places",
    "longitude": "2.530604"
  },
  {
    "country": "SE",
    "place_alt": "\\N",
    "latitude": "62.1667",
    "tgn": "1063867",
    "place": "Ytterhogdal",
    "id": "80",
    "type": "inhabited places",
    "longitude": "14.9167"
  },
  {
    "country": "BE",
    "place_alt": "Ostend",
    "latitude": "51.223392",
    "tgn": "7007967",
    "place": "Oostende",
    "id": "81",
    "type": "inhabited places",
    "longitude": "2.911854"
  },
  {
    "country": "US",
    "place_alt": "New York",
    "latitude": "40.7",
    "tgn": "7007567",
    "place": "New York",
    "id": "82",
    "type": "inhabited places",
    "longitude": "-74"
  },
  {
    "country": "NO",
    "place_alt": "\\N",
    "latitude": "63.429722",
    "tgn": "7009596",
    "place": "Trondheim",
    "id": "83",
    "type": "inhabited places",
    "longitude": "10.393333"
  },
  {
    "country": "DE",
    "place_alt": "Brühl (Rhineland)",
    "latitude": "50.833333",
    "tgn": "7012417",
    "place": "Brühl",
    "id": "84",
    "type": "inhabited places",
    "longitude": "6.9"
  },
  {
    "country": "GB",
    "place_alt": "Newcastle upon Tyne",
    "latitude": "54.988056",
    "tgn": "7012026",
    "place": "Newcastle upon Tyne",
    "id": "85",
    "type": "inhabited places",
    "longitude": "-1.619444"
  },
  {
    "country": "PL",
    "place_alt": "\\N",
    "latitude": "53.15",
    "tgn": "7007545",
    "place": "Białystok",
    "id": "86",
    "type": "inhabited places",
    "longitude": "23.1667"
  },
  {
    "country": "RU",
    "place_alt": "\\N",
    "latitude": "58.0167",
    "tgn": "7010249",
    "place": "Perm",
    "id": "87",
    "type": "inhabited places",
    "longitude": "56.1667"
  },
  {
    "country": "RU",
    "place_alt": "\\N",
    "latitude": "56.4",
    "tgn": "1137524",
    "place": "Ivanovskoye",
    "id": "88",
    "type": "inhabited places",
    "longitude": "37.1333"
  },
  {
    "country": "RU",
    "place_alt": "\\N",
    "latitude": "60.1667",
    "tgn": "1058916",
    "place": "Repino",
    "id": "89",
    "type": "inhabited places",
    "longitude": "29.8667"
  },
  {
    "country": "LT",
    "place_alt": "\\N",
    "latitude": "54.6833",
    "tgn": "7006521",
    "place": "Vilnius",
    "id": "90",
    "type": "inhabited places",
    "longitude": "25.3167"
  },
  {
    "country": "CZ",
    "place_alt": "Prague",
    "latitude": "50.1",
    "tgn": "7006464",
    "place": "Praha",
    "id": "91",
    "type": "inhabited places",
    "longitude": "14.4333"
  },
  {
    "country": "FI",
    "place_alt": "\\N",
    "latitude": "61.4667",
    "tgn": "7009893",
    "place": "Pori",
    "id": "93",
    "type": "inhabited places",
    "longitude": "21.75"
  },
  {
    "country": "FR",
    "place_alt": "\\N",
    "latitude": "47.913029",
    "tgn": "1035378",
    "place": "Saint-Jean-de-Braye",
    "id": "94",
    "type": "inhabited places",
    "longitude": "1.977047"
  },
  {
    "country": "NL",
    "place_alt": "\\N",
    "latitude": "52.083333",
    "tgn": "1048252",
    "place": "Woerden",
    "id": "95",
    "type": "inhabited places",
    "longitude": "4.916667"
  },
  {
    "country": "GB",
    "place_alt": "Rode",
    "latitude": "51.284167",
    "tgn": "7029265",
    "place": "Rode",
    "id": "96",
    "type": "inhabited places",
    "longitude": "-2.278333"
  },
  {
    "country": "FR",
    "place_alt": "\\N",
    "latitude": "43.549744",
    "tgn": "7008765",
    "place": "Cannes",
    "id": "97",
    "type": "inhabited places",
    "longitude": "6.9943"
  },
  {
    "country": "RU",
    "place_alt": "\\N",
    "latitude": "54.1833",
    "tgn": "7010310",
    "place": "Tula",
    "id": "98",
    "type": "inhabited places",
    "longitude": "37.6333"
  },
  {
    "country": "GB",
    "place_alt": "Epsom",
    "latitude": "51.316667",
    "tgn": "7011734",
    "place": "Epsom",
    "id": "99",
    "type": "inhabited places",
    "longitude": "-0.266667"
  },
  {
    "country": "ES",
    "place_alt": "\\N",
    "latitude": "40.4",
    "tgn": "7010413",
    "place": "Madrid",
    "id": "100",
    "type": "inhabited places",
    "longitude": "-3.683333"
  },
  {
    "country": "UA",
    "place_alt": "\\N",
    "latitude": "51.5667",
    "tgn": "1055937",
    "place": "Krolevets",
    "id": "101",
    "type": "inhabited places",
    "longitude": "33.4"
  },
  {
    "country": "SE",
    "place_alt": "\\N",
    "latitude": "59.3333",
    "tgn": "7009861",
    "place": "Stockholm",
    "id": "102",
    "type": "inhabited places",
    "longitude": "18.0833"
  },
  {
    "country": "CZ",
    "place_alt": "\\N",
    "latitude": "50.45",
    "tgn": "1027169",
    "place": "Dvůr Králové",
    "id": "103",
    "type": "inhabited places",
    "longitude": "15.8333"
  },
  {
    "country": "CH",
    "place_alt": "Bern",
    "latitude": "46.916667",
    "tgn": "7007557",
    "place": "Bern",
    "id": "104",
    "type": "inhabited places",
    "longitude": "7.466667"
  },
  {
    "country": "PL",
    "place_alt": "Warsaw",
    "latitude": "52.25",
    "tgn": "7007833",
    "place": "Warszawa",
    "id": "105",
    "type": "inhabited places",
    "longitude": "21"
  },
  {
    "country": "DE",
    "place_alt": "\\N",
    "latitude": "51.116667",
    "tgn": "7012805",
    "place": "Döbeln",
    "id": "106",
    "type": "inhabited places",
    "longitude": "13.116667"
  },
  {
    "country": "US",
    "place_alt": "\\N",
    "latitude": "39.15",
    "tgn": "7013604",
    "place": "Cincinnati",
    "id": "107",
    "type": "inhabited places",
    "longitude": "-84.45"
  },
  {
    "country": "FR",
    "place_alt": "\\N",
    "latitude": "50.168038",
    "tgn": "1035017",
    "place": "Quiévy",
    "id": "108",
    "type": "inhabited places",
    "longitude": "3.428336"
  },
  {
    "country": "FR",
    "place_alt": "\\N",
    "latitude": "47.85896",
    "tgn": "7008343",
    "place": "Langres",
    "id": "109",
    "type": "inhabited places",
    "longitude": "5.332966"
  },
  {
    "country": "SE",
    "place_alt": "\\N",
    "latitude": "62.3667",
    "tgn": "1063688",
    "place": "Sundsvall",
    "id": "110",
    "type": "inhabited places",
    "longitude": "17.3333"
  },
  {
    "country": "CZ",
    "place_alt": "\\N",
    "latitude": "49.6333",
    "tgn": "7011841",
    "place": "Olomouc",
    "id": "111",
    "type": "inhabited places",
    "longitude": "17.25"
  },
  {
    "country": "DE",
    "place_alt": "Karlsruhe",
    "latitude": "49.004722",
    "tgn": "7004424",
    "place": "Karlsruhe",
    "id": "112",
    "type": "inhabited places",
    "longitude": "8.385833"
  },
  {
    "country": "US",
    "place_alt": "\\N",
    "latitude": "41.0833",
    "tgn": "2071393",
    "place": "Nyack",
    "id": "113",
    "type": "inhabited places",
    "longitude": "-73.9167"
  },
  {
    "country": "CH",
    "place_alt": "Zurich",
    "latitude": "47.366667",
    "tgn": "7007302",
    "place": "Zürich",
    "id": "114",
    "type": "inhabited places",
    "longitude": "8.55"
  },
  {
    "country": "RU",
    "place_alt": "\\N",
    "latitude": "57.0333",
    "tgn": "7010306",
    "place": "Torzhok",
    "id": "115",
    "type": "inhabited places",
    "longitude": "34.85"
  },
  {
    "country": "CH",
    "place_alt": "\\N",
    "latitude": "47.104417",
    "tgn": "7007387",
    "place": "La Chaux-de-Fonds",
    "id": "116",
    "type": "inhabited places",
    "longitude": "6.828892"
  },
  {
    "country": "GB",
    "place_alt": "Tenby",
    "latitude": "51.673056",
    "tgn": "1064840",
    "place": "Tenby",
    "id": "117",
    "type": "inhabited places",
    "longitude": "-4.709722"
  },
  {
    "country": "GB",
    "place_alt": "Haverfordwest",
    "latitude": "51.801667",
    "tgn": "7008836",
    "place": "Haverfordwest",
    "id": "118",
    "type": "inhabited places",
    "longitude": "-4.970833"
  },
  {
    "country": "BE",
    "place_alt": "\\N",
    "latitude": "51.028691",
    "tgn": "7007872",
    "place": "Dendermonde",
    "id": "119",
    "type": "inhabited places",
    "longitude": "4.101059"
  },
  {
    "country": "DE",
    "place_alt": "\\N",
    "latitude": "49.973889",
    "tgn": "7004322",
    "place": "Aschaffenburg",
    "id": "120",
    "type": "inhabited places",
    "longitude": "9.149167"
  },
  {
    "country": "PL",
    "place_alt": "Cracow",
    "latitude": "50.05",
    "tgn": "7007652",
    "place": "Kraków",
    "id": "121",
    "type": "inhabited places",
    "longitude": "19.9167"
  },
  {
    "country": "CH",
    "place_alt": "\\N",
    "latitude": "47.020946",
    "tgn": "1064212",
    "place": "Münchenbuchsee",
    "id": "122",
    "type": "inhabited places",
    "longitude": "7.448956"
  },
  {
    "country": "AT",
    "place_alt": "Vienna state",
    "latitude": "48.25",
    "tgn": "7003030",
    "place": "Wien",
    "id": "123",
    "type": "states (political divisions)",
    "longitude": "16.416"
  },
  {
    "country": "AT",
    "place_alt": "\\N",
    "latitude": "48.2167",
    "tgn": "7003192",
    "place": "Pöchlarn",
    "id": "124",
    "type": "inhabited places",
    "longitude": "15.2167"
  },
  {
    "country": "DE",
    "place_alt": "\\N",
    "latitude": "51.066667",
    "tgn": "1037915",
    "place": "Waldheim",
    "id": "125",
    "type": "inhabited places",
    "longitude": "13.016667"
  },
  {
    "country": "UA",
    "place_alt": "\\N",
    "latitude": "48.85",
    "tgn": "7014818",
    "place": "Slavyansk",
    "id": "126",
    "type": "inhabited places",
    "longitude": "37.6"
  },
  {
    "country": "CZ",
    "place_alt": "\\N",
    "latitude": "50.55",
    "tgn": "7011695",
    "place": "Litoměřice",
    "id": "127",
    "type": "inhabited places",
    "longitude": "14.1667"
  },
  {
    "country": "CZ",
    "place_alt": "\\N",
    "latitude": "50.269",
    "tgn": "4008221",
    "place": "Opočno",
    "id": "128",
    "type": "inhabited places",
    "longitude": "16.11"
  },
  {
    "country": "RU",
    "place_alt": "\\N",
    "latitude": "51.3833",
    "tgn": "1053021",
    "place": "Borisoglebsk",
    "id": "129",
    "type": "inhabited places",
    "longitude": "42.0333"
  },
  {
    "country": "AU",
    "place_alt": "\\N",
    "latitude": "-34.928661",
    "tgn": "7001904",
    "place": "Adelaide",
    "id": "130",
    "type": "inhabited places",
    "longitude": "138.598633"
  },
  {
    "country": "MD",
    "place_alt": "\\N",
    "latitude": "46.8333",
    "tgn": "1060316",
    "place": "Tiraspol",
    "id": "131",
    "type": "inhabited places",
    "longitude": "29.6333"
  },
  {
    "country": "FR",
    "place_alt": "\\N",
    "latitude": "48.745175",
    "tgn": "7008654",
    "place": "Argentan",
    "id": "132",
    "type": "inhabited places",
    "longitude": "-0.018062"
  },
  {
    "country": "DE",
    "place_alt": "\\N",
    "latitude": "51.433333",
    "tgn": "7004923",
    "place": "Duisburg",
    "id": "133",
    "type": "inhabited places",
    "longitude": "6.75"
  },
  {
    "country": "CA",
    "place_alt": "\\N",
    "latitude": "45.8333",
    "tgn": "1014400",
    "place": "Amherst",
    "id": "134",
    "type": "inhabited places",
    "longitude": "-64.2333"
  },
  {
    "country": "FR",
    "place_alt": "\\N",
    "latitude": "44.840439",
    "tgn": "7008161",
    "place": "Bordeaux",
    "id": "135",
    "type": "inhabited places",
    "longitude": "-0.5805"
  },
  {
    "country": "DE",
    "place_alt": "Berlin",
    "latitude": "52.516667",
    "tgn": "7003712",
    "place": "Berlin",
    "id": "136",
    "type": "inhabited places",
    "longitude": "13.4"
  },
  {
    "country": "CZ",
    "place_alt": "\\N",
    "latitude": "50.763",
    "tgn": "7011694",
    "place": "Liberec",
    "id": "137",
    "type": "inhabited places",
    "longitude": "15.065"
  },
  {
    "country": "US",
    "place_alt": "\\N",
    "latitude": "40.6667",
    "tgn": "2773312",
    "place": "Williamsport",
    "id": "138",
    "type": "inhabited places",
    "longitude": "-75.2"
  },
  {
    "country": "NO",
    "place_alt": "\\N",
    "latitude": "60.3833",
    "tgn": "7007059",
    "place": "Bergen",
    "id": "139",
    "type": "inhabited places",
    "longitude": "5.3333"
  },
  {
    "country": "US",
    "place_alt": "\\N",
    "latitude": "38.0167",
    "tgn": "7013585",
    "place": "Charlottesville",
    "id": "140",
    "type": "inhabited places",
    "longitude": "-78.4667"
  },
  {
    "country": "FR",
    "place_alt": "\\N",
    "latitude": "42.482715",
    "tgn": "4001198",
    "place": "Banyuls-sur-Mer",
    "id": "141",
    "type": "inhabited places",
    "longitude": "3.128384"
  },
  {
    "country": "DE",
    "place_alt": "Munich",
    "latitude": "48.15",
    "tgn": "7004333",
    "place": "München",
    "id": "142",
    "type": "inhabited places",
    "longitude": "11.583333"
  },
  {
    "country": "US",
    "place_alt": "\\N",
    "latitude": "40.8167",
    "tgn": "7014429",
    "place": "Rutherford",
    "id": "143",
    "type": "inhabited places",
    "longitude": "-74.1"
  },
  {
    "country": "IT",
    "place_alt": "\\N",
    "latitude": "45.78",
    "tgn": "7003301",
    "place": "Oderzo",
    "id": "144",
    "type": "inhabited places",
    "longitude": "12.488056"
  },
  {
    "country": "FR",
    "place_alt": "\\N",
    "latitude": "\\N",
    "tgn": "4006209",
    "place": "Le Cateau-Cambrésis",
    "id": "145",
    "type": "inhabited places",
    "longitude": "\\N"
  },
  {
    "country": "RU",
    "place_alt": "\\N",
    "latitude": "56.3333",
    "tgn": "7011579",
    "place": "Nizhniy Novgorod",
    "id": "146",
    "type": "inhabited places",
    "longitude": "44"
  },
  {
    "country": "DE",
    "place_alt": "\\N",
    "latitude": "51.05",
    "tgn": "1036452",
    "place": "Bernstadt",
    "id": "147",
    "type": "inhabited places",
    "longitude": "14.85"
  },
  {
    "country": "CZ",
    "place_alt": "Bohemia",
    "latitude": "49.3333",
    "tgn": "7006470",
    "place": "Čechy",
    "id": "148",
    "type": "general regions",
    "longitude": "14.5"
  },
  {
    "country": "FR",
    "place_alt": "\\N",
    "latitude": "47.216509",
    "tgn": "7008482",
    "place": "Nantes",
    "id": "149",
    "type": "inhabited places",
    "longitude": "-1.552379"
  },
  {
    "country": "BE",
    "place_alt": "\\N",
    "latitude": "50.833333",
    "tgn": "7008814",
    "place": "Etterbeek",
    "id": "150",
    "type": "inhabited places",
    "longitude": "4.383333"
  },
  {
    "country": "US",
    "place_alt": "\\N",
    "latitude": "43.0833",
    "tgn": "7014288",
    "place": "Oneida",
    "id": "151",
    "type": "inhabited places",
    "longitude": "-75.65"
  },
  {
    "country": "SE",
    "place_alt": "\\N",
    "latitude": "56.9167",
    "tgn": "1063284",
    "place": "Lagan",
    "id": "152",
    "type": "inhabited places",
    "longitude": "13.9833"
  },
  {
    "country": "IT",
    "place_alt": "\\N",
    "latitude": "43.55",
    "tgn": "7006074",
    "place": "Livorno",
    "id": "153",
    "type": "inhabited places",
    "longitude": "10.316667"
  },
  {
    "country": "PL",
    "place_alt": "\\N",
    "latitude": "50.35",
    "tgn": "7007623",
    "place": "Brzeg",
    "id": "154",
    "type": "inhabited places",
    "longitude": "17.4667"
  },
  {
    "country": "FR",
    "place_alt": "Marseilles",
    "latitude": "43.285413",
    "tgn": "7008781",
    "place": "Marseille",
    "id": "155",
    "type": "inhabited places",
    "longitude": "5.37606"
  },
  {
    "country": "DE",
    "place_alt": "\\N",
    "latitude": "51.583333",
    "tgn": "7005105",
    "place": "Soest",
    "id": "156",
    "type": "inhabited places",
    "longitude": "8.116667"
  },
  {
    "country": "\\N",
    "place_alt": "Silesia",
    "latitude": "50.8",
    "tgn": "7007552",
    "place": "Schlesien",
    "id": "157",
    "type": "historical regions",
    "longitude": "17.4"
  },
  {
    "country": "NO",
    "place_alt": "\\N",
    "latitude": "60.8167",
    "tgn": "1048626",
    "place": "Løten",
    "id": "158",
    "type": "inhabited places",
    "longitude": "11.3167"
  },
  {
    "country": "ES",
    "place_alt": "\\N",
    "latitude": "41.398371",
    "tgn": "7007426",
    "place": "Barcelona",
    "id": "159",
    "type": "inhabited places",
    "longitude": "2.1741"
  },
  {
    "country": "CH",
    "place_alt": "\\N",
    "latitude": "47.318309",
    "tgn": "7007382",
    "place": "Kilchberg",
    "id": "160",
    "type": "inhabited places",
    "longitude": "8.551172"
  },
  {
    "country": "DE",
    "place_alt": "\\N",
    "latitude": "51.966667",
    "tgn": "7004445",
    "place": "Münster",
    "id": "161",
    "type": "inhabited places",
    "longitude": "7.633333"
  },
  {
    "country": "BG",
    "place_alt": "\\N",
    "latitude": "44",
    "tgn": "7010649",
    "place": "Vidin",
    "id": "162",
    "type": "inhabited places",
    "longitude": "22.8333"
  },
  {
    "country": "DE",
    "place_alt": "\\N",
    "latitude": "50.733333",
    "tgn": "7012354",
    "place": "Zwickau",
    "id": "163",
    "type": "inhabited places",
    "longitude": "12.5"
  },
  {
    "country": "IT",
    "place_alt": "\\N",
    "latitude": "44.883333",
    "tgn": "1047497",
    "place": "Volpedo",
    "id": "164",
    "type": "inhabited places",
    "longitude": "8.983333"
  },
  {
    "country": "RU",
    "place_alt": "\\N",
    "latitude": "52.5",
    "tgn": "1053430",
    "place": "Khvalynsk",
    "id": "165",
    "type": "inhabited places",
    "longitude": "48.0667"
  },
  {
    "country": "ES",
    "place_alt": "\\N",
    "latitude": "36.716667",
    "tgn": "7007942",
    "place": "Málaga",
    "id": "166",
    "type": "inhabited places",
    "longitude": "-4.416667"
  },
  {
    "country": "GE",
    "place_alt": "\\N",
    "latitude": "41.383",
    "tgn": "1057036",
    "place": "Mirzaani",
    "id": "167",
    "type": "inhabited places",
    "longitude": "46.143"
  },
  {
    "country": "DZ",
    "place_alt": "Algiers",
    "latitude": "36.783",
    "tgn": "7001314",
    "place": "Algiers",
    "id": "168",
    "type": "inhabited places",
    "longitude": "3.05"
  },
  {
    "country": "CA",
    "place_alt": "\\N",
    "latitude": "47.55",
    "tgn": "7012999",
    "place": "Saint John's",
    "id": "169",
    "type": "inhabited places",
    "longitude": "-52.6667"
  },
  {
    "country": "DE",
    "place_alt": "\\N",
    "latitude": "49.329722",
    "tgn": "7012341",
    "place": "Speyer",
    "id": "170",
    "type": "inhabited places",
    "longitude": "8.427778"
  },
  {
    "country": "IT",
    "place_alt": "\\N",
    "latitude": "46.666667",
    "tgn": "7005432",
    "place": "Merano",
    "id": "171",
    "type": "inhabited places",
    "longitude": "11.15"
  },
  {
    "country": "FR",
    "place_alt": "\\N",
    "latitude": "45.748457",
    "tgn": "7008772",
    "place": "Lyon",
    "id": "172",
    "type": "inhabited places",
    "longitude": "4.846711"
  },
  {
    "country": "FR",
    "place_alt": "\\N",
    "latitude": "45.831534",
    "tgn": "7008410",
    "place": "Limoges",
    "id": "173",
    "type": "inhabited places",
    "longitude": "1.257805"
  },
  {
    "country": "HU",
    "place_alt": "\\N",
    "latitude": "46.35",
    "tgn": "1042365",
    "place": "Kaposvár",
    "id": "174",
    "type": "inhabited places",
    "longitude": "17.8167"
  },
  {
    "country": "MX",
    "place_alt": "\\N",
    "latitude": "21.016667",
    "tgn": "1017522",
    "place": "Guanajuato",
    "id": "175",
    "type": "inhabited places",
    "longitude": "-101.25"
  },
  {
    "country": "DE",
    "place_alt": "\\N",
    "latitude": "52.333333",
    "tgn": "1040415",
    "place": "Neindorf",
    "id": "176",
    "type": "inhabited places",
    "longitude": "10.833333"
  },
  {
    "country": "BE",
    "place_alt": "\\N",
    "latitude": "50.469923",
    "tgn": "7007960",
    "place": "Namur",
    "id": "177",
    "type": "inhabited places",
    "longitude": "4.82577"
  },
  {
    "country": "FR",
    "place_alt": "\\N",
    "latitude": "48.073203",
    "tgn": "7008490",
    "place": "Laval",
    "id": "178",
    "type": "inhabited places",
    "longitude": "-0.763399"
  },
  {
    "country": "IT",
    "place_alt": "Venice",
    "latitude": "45.438611",
    "tgn": "7018159",
    "place": "Venezia",
    "id": "179",
    "type": "inhabited places",
    "longitude": "12.326667"
  },
  {
    "country": "US",
    "place_alt": "\\N",
    "latitude": "41.6333",
    "tgn": "7014196",
    "place": "New Bedford",
    "id": "180",
    "type": "inhabited places",
    "longitude": "-70.9333"
  },
  {
    "country": "SE",
    "place_alt": "Gothenburg",
    "latitude": "57.7167",
    "tgn": "7009954",
    "place": "Göteborg",
    "id": "181",
    "type": "inhabited places",
    "longitude": "11.9667"
  },
  {
    "country": "AZ",
    "place_alt": "Nakhichevan",
    "latitude": "39.2",
    "tgn": "1057265",
    "place": "Naxçıvan",
    "id": "182",
    "type": "inhabited places",
    "longitude": "45.4"
  },
  {
    "country": "FR",
    "place_alt": "\\N",
    "latitude": "47.545909",
    "tgn": "1033191",
    "place": "Fresne-Saint-Mamès",
    "id": "183",
    "type": "inhabited places",
    "longitude": "5.860926"
  },
  {
    "country": "IT",
    "place_alt": "\\N",
    "latitude": "45.916667",
    "tgn": "1043264",
    "place": "Arco",
    "id": "184",
    "type": "inhabited places",
    "longitude": "10.883333"
  },
  {
    "country": "FR",
    "place_alt": "Brittany",
    "latitude": "48.166",
    "tgn": "7012216",
    "place": "Bretagne",
    "id": "185",
    "type": "regions (administrative divisions)",
    "longitude": "-2.833"
  },
  {
    "country": "DE",
    "place_alt": "\\N",
    "latitude": "48.533333",
    "tgn": "7004414",
    "place": "Landshut",
    "id": "186",
    "type": "inhabited places",
    "longitude": "12.15"
  },
  {
    "country": "US",
    "place_alt": "\\N",
    "latitude": "41.1333",
    "tgn": "2090232",
    "place": "Lock Haven",
    "id": "187",
    "type": "inhabited places",
    "longitude": "-77.4333"
  },
  {
    "country": "GB",
    "place_alt": "Halifax",
    "latitude": "53.716667",
    "tgn": "7010460",
    "place": "Halifax",
    "id": "188",
    "type": "inhabited places",
    "longitude": "-1.85"
  },
  {
    "country": "GB",
    "place_alt": "Cookham",
    "latitude": "51.55",
    "tgn": "7011923",
    "place": "Cookham",
    "id": "189",
    "type": "inhabited places",
    "longitude": "-0.7"
  },
  {
    "country": "PL",
    "place_alt": "\\N",
    "latitude": "52.0833",
    "tgn": "1048865",
    "place": "Zerków",
    "id": "190",
    "type": "inhabited places",
    "longitude": "17.5333"
  },
  {
    "country": "IT",
    "place_alt": "\\N",
    "latitude": "40.75",
    "tgn": "7004246",
    "place": "Muro Lucano",
    "id": "191",
    "type": "inhabited places",
    "longitude": "15.483333"
  },
  {
    "country": "RU",
    "place_alt": "\\N",
    "latitude": "54.8167",
    "tgn": "7010288",
    "place": "Smolensk",
    "id": "192",
    "type": "inhabited places",
    "longitude": "32.0667"
  },
  {
    "country": "NL",
    "place_alt": "Hague, The",
    "latitude": "52.083333",
    "tgn": "7006810",
    "place": "'s-Gravenhage",
    "id": "193",
    "type": "inhabited places",
    "longitude": "4.3"
  },
  {
    "country": "NL",
    "place_alt": "\\N",
    "latitude": "52.2",
    "tgn": "7006814",
    "place": "Katwijk aan Zee",
    "id": "194",
    "type": "inhabited places",
    "longitude": "4.416667"
  },
  {
    "country": "FR",
    "place_alt": "\\N",
    "latitude": "43.927186",
    "tgn": "7008447",
    "place": "Albi",
    "id": "195",
    "type": "inhabited places",
    "longitude": "2.149255"
  },
  {
    "country": "RU",
    "place_alt": "\\N",
    "latitude": "52.5833",
    "tgn": "7017988",
    "place": "Yelets",
    "id": "196",
    "type": "inhabited places",
    "longitude": "38.5"
  },
  {
    "country": "RU",
    "place_alt": "\\N",
    "latitude": "52.7333",
    "tgn": "7010298",
    "place": "Tambov",
    "id": "197",
    "type": "inhabited places",
    "longitude": "41.4667"
  },
  {
    "country": "FR",
    "place_alt": "\\N",
    "latitude": "46.107991",
    "tgn": "4001468",
    "place": "Bessines-sur-Gartempe",
    "id": "198",
    "type": "inhabited places",
    "longitude": "1.368649"
  },
  {
    "country": "CH",
    "place_alt": "\\N",
    "latitude": "46.533333",
    "tgn": "7007299",
    "place": "Lausanne",
    "id": "199",
    "type": "inhabited places",
    "longitude": "6.666667"
  },
  {
    "country": "FR",
    "place_alt": "\\N",
    "latitude": "49.920403",
    "tgn": "7008922",
    "place": "Dieppe",
    "id": "200",
    "type": "inhabited places",
    "longitude": "1.086542"
  },
  {
    "country": "BE",
    "place_alt": "Antwerp",
    "latitude": "51.213886",
    "tgn": "7007856",
    "place": "Antwerpen",
    "id": "201",
    "type": "inhabited places",
    "longitude": "4.401514"
  },
  {
    "country": "NL",
    "place_alt": "\\N",
    "latitude": "52.083333",
    "tgn": "7006926",
    "place": "Utrecht",
    "id": "202",
    "type": "inhabited places",
    "longitude": "5.133333"
  },
  {
    "country": "NL",
    "place_alt": "\\N",
    "latitude": "51.916667",
    "tgn": "7006792",
    "place": "Rotterdam",
    "id": "203",
    "type": "inhabited places",
    "longitude": "4.5"
  },
  {
    "country": "NL",
    "place_alt": "\\N",
    "latitude": "51.466667",
    "tgn": "7006823",
    "place": "Zundert",
    "id": "204",
    "type": "inhabited places",
    "longitude": "4.666667"
  },
  {
    "country": "DE",
    "place_alt": "Bavaria",
    "latitude": "48.5",
    "tgn": "7003669",
    "place": "Bayern",
    "id": "205",
    "type": "states (political divisions)",
    "longitude": "11.5"
  },
  {
    "country": "RU",
    "place_alt": "\\N",
    "latitude": "55",
    "tgn": "7010238",
    "place": "Omsk",
    "id": "206",
    "type": "inhabited places",
    "longitude": "73.3667"
  },
  {
    "country": "FR",
    "place_alt": "\\N",
    "latitude": "46.493635",
    "tgn": "1032874",
    "place": "Cuiseaux",
    "id": "207",
    "type": "inhabited places",
    "longitude": "5.388717"
  },
  {
    "country": "GB",
    "place_alt": "\\N",
    "latitude": "53.716667",
    "tgn": "1028875",
    "place": "Cleckheaton",
    "id": "208",
    "type": "inhabited places",
    "longitude": "-1.716667"
  },
  {
    "country": "RU",
    "place_alt": "\\N",
    "latitude": "57.1833",
    "tgn": "7011602",
    "place": "Tyumen'",
    "id": "209",
    "type": "inhabited places",
    "longitude": "65.4833"
  },
  {
    "country": "US",
    "place_alt": "\\N",
    "latitude": "42.6333",
    "tgn": "7013975",
    "place": "Lowell",
    "id": "210",
    "type": "inhabited places",
    "longitude": "-71.3167"
  },
  {
    "country": "BE",
    "place_alt": "\\N",
    "latitude": "51.028298",
    "tgn": "7008736",
    "place": "Mechelen",
    "id": "211",
    "type": "inhabited places",
    "longitude": "4.479327"
  },
  {
    "country": "GE",
    "place_alt": "\\N",
    "latitude": "41.694113",
    "tgn": "7012268",
    "place": "Tbilisi",
    "id": "212",
    "type": "inhabited places",
    "longitude": "44.833682"
  },
  {
    "country": "LT",
    "place_alt": "\\N",
    "latitude": "55.0667",
    "tgn": "1054785",
    "place": "Jurbarkas",
    "id": "213",
    "type": "inhabited places",
    "longitude": "22.7"
  },
  {
    "country": "SE",
    "place_alt": "\\N",
    "latitude": "61",
    "tgn": "7009843",
    "place": "Mora",
    "id": "214",
    "type": "inhabited places",
    "longitude": "14.5"
  },
  {
    "country": "CZ",
    "place_alt": "\\N",
    "latitude": "49.6333",
    "tgn": "1027187",
    "place": "Havlíčkův Brod",
    "id": "215",
    "type": "inhabited places",
    "longitude": "15.5667"
  },
  {
    "country": "FR",
    "place_alt": "\\N",
    "latitude": "48.883333",
    "tgn": "7009402",
    "place": "Neuilly-sur-Seine",
    "id": "216",
    "type": "inhabited places",
    "longitude": "2.266667"
  },
  {
    "country": "IT",
    "place_alt": "Rome",
    "latitude": "41.9",
    "tgn": "7000874",
    "place": "Roma",
    "id": "217",
    "type": "inhabited places",
    "longitude": "12.483333"
  },
  {
    "country": "DE",
    "place_alt": "\\N",
    "latitude": "54.083333",
    "tgn": "7004717",
    "place": "Rostock",
    "id": "218",
    "type": "inhabited places",
    "longitude": "12.133333"
  },
  {
    "country": "IT",
    "place_alt": "\\N",
    "latitude": "43.466667",
    "tgn": "7006334",
    "place": "San Gimignano",
    "id": "219",
    "type": "inhabited places",
    "longitude": "11.033333"
  },
  {
    "country": "FR",
    "place_alt": "\\N",
    "latitude": "43.774227",
    "tgn": "7009337",
    "place": "Menton",
    "id": "220",
    "type": "inhabited places",
    "longitude": "7.499087"
  },
  {
    "country": "GB",
    "place_alt": "West Sussex",
    "latitude": "51",
    "tgn": "7008134",
    "place": "West Sussex",
    "id": "221",
    "type": "counties",
    "longitude": "-0.416667"
  },
  {
    "country": "IT",
    "place_alt": "\\N",
    "latitude": "\\N",
    "tgn": "5002926",
    "place": "San Domenico di Fièsole",
    "id": "222",
    "type": "inhabited places",
    "longitude": "\\N"
  },
  {
    "country": "FR",
    "place_alt": "Le Cannet",
    "latitude": "43.574445",
    "tgn": "7009270",
    "place": "Le Cannet",
    "id": "223",
    "type": "inhabited places",
    "longitude": "7.006431"
  },
  {
    "country": "RU",
    "place_alt": "\\N",
    "latitude": "54.7333",
    "tgn": "1060164",
    "place": "Tarusa",
    "id": "224",
    "type": "inhabited places",
    "longitude": "37.2333"
  },
  {
    "country": "BE",
    "place_alt": "\\N",
    "latitude": "50.847988",
    "tgn": "1026397",
    "place": "Dilbeek",
    "id": "225",
    "type": "inhabited places",
    "longitude": "4.259723"
  },
  {
    "country": "CH",
    "place_alt": "\\N",
    "latitude": "46.683872",
    "tgn": "7007377",
    "place": "Interlaken",
    "id": "226",
    "type": "inhabited places",
    "longitude": "7.866376"
  },
  {
    "country": "US",
    "place_alt": "Southampton, New York",
    "latitude": "40.8833",
    "tgn": "7014521",
    "place": "Southampton",
    "id": "227",
    "type": "inhabited places",
    "longitude": "-72.3833"
  },
  {
    "country": "GR",
    "place_alt": "Greece",
    "latitude": "39",
    "tgn": "1000074",
    "place": "Ellás",
    "id": "228",
    "type": "nations",
    "longitude": "22"
  },
  {
    "country": "IT",
    "place_alt": "Milan",
    "latitude": "45.466667",
    "tgn": "7005903",
    "place": "Milano",
    "id": "229",
    "type": "inhabited places",
    "longitude": "9.2"
  },
  {
    "country": "FR",
    "place_alt": "Département de Vaucluse",
    "latitude": "44",
    "tgn": "7008006",
    "place": "Département de Vaucluse",
    "id": "230",
    "type": "departments (political divisions)",
    "longitude": "5.166667"
  },
  {
    "country": "FR",
    "place_alt": "\\N",
    "latitude": "43.695955",
    "tgn": "7009704",
    "place": "Saint-Paul",
    "id": "231",
    "type": "inhabited places",
    "longitude": "7.12258"
  },
  {
    "country": "FR",
    "place_alt": "\\N",
    "latitude": "48.732194",
    "tgn": "1036152",
    "place": "Villeneuve-Saint-Georges",
    "id": "232",
    "type": "inhabited places",
    "longitude": "2.44925"
  },
  {
    "country": "GB",
    "place_alt": "\\N",
    "latitude": "51.4",
    "tgn": "1030962",
    "place": "Virginia Water",
    "id": "233",
    "type": "inhabited places",
    "longitude": "-0.5667"
  },
  {
    "country": "NL",
    "place_alt": "\\N",
    "latitude": "52.366667",
    "tgn": "1048265",
    "place": "Zandvoort",
    "id": "234",
    "type": "inhabited places",
    "longitude": "4.533333"
  },
  {
    "country": "CH",
    "place_alt": "\\N",
    "latitude": "46.453552",
    "tgn": "7007393",
    "place": "La Tour-de-Peilz",
    "id": "235",
    "type": "inhabited places",
    "longitude": "6.858596"
  },
  {
    "country": "GB",
    "place_alt": "Horsham",
    "latitude": "51.05",
    "tgn": "7011424",
    "place": "Horsham",
    "id": "236",
    "type": "inhabited places",
    "longitude": "-0.333333"
  },
  {
    "country": "FR",
    "place_alt": "Département du Var",
    "latitude": "43.5",
    "tgn": "7003220",
    "place": "Département du Var",
    "id": "237",
    "type": "departments (political divisions)",
    "longitude": "6.333333"
  },
  {
    "country": "DE",
    "place_alt": "\\N",
    "latitude": "53.55",
    "tgn": "7005289",
    "place": "Hamburg",
    "id": "238",
    "type": "inhabited places",
    "longitude": "10"
  },
  {
    "country": "FR",
    "place_alt": "\\N",
    "latitude": "43.61092",
    "tgn": "7009369",
    "place": "Montpellier",
    "id": "239",
    "type": "inhabited places",
    "longitude": "3.87723"
  },
  {
    "country": "DE",
    "place_alt": "\\N",
    "latitude": "47.733333",
    "tgn": "7012738",
    "place": "Todtmoos",
    "id": "240",
    "type": "inhabited places",
    "longitude": "8"
  },
  {
    "country": "FR",
    "place_alt": "\\N",
    "latitude": "48.842257",
    "tgn": "7009195",
    "place": "Garches",
    "id": "241",
    "type": "inhabited places",
    "longitude": "2.182317"
  },
  {
    "country": "BE",
    "place_alt": "\\N",
    "latitude": "51.004111",
    "tgn": "4003261",
    "place": "Deurle",
    "id": "242",
    "type": "inhabited places",
    "longitude": "3.614747"
  },
  {
    "country": "US",
    "place_alt": "\\N",
    "latitude": "\\N",
    "tgn": "7015899",
    "place": "Long Island",
    "id": "243",
    "type": "islands (landforms)",
    "longitude": "\\N"
  },
  {
    "country": "FR",
    "place_alt": "\\N",
    "latitude": "43.959812",
    "tgn": "7009185",
    "place": "Forcalquier",
    "id": "244",
    "type": "inhabited places",
    "longitude": "5.780788"
  },
  {
    "country": "DE",
    "place_alt": "Germany",
    "latitude": "51.5",
    "tgn": "7000084",
    "place": "Deutschland",
    "id": "245",
    "type": "nations",
    "longitude": "10.5"
  },
  {
    "country": "GB",
    "place_alt": "Folkestone",
    "latitude": "51.083333",
    "tgn": "7011556",
    "place": "Folkestone",
    "id": "246",
    "type": "inhabited places",
    "longitude": "1.183333"
  },
  {
    "country": "RU",
    "place_alt": "\\N",
    "latitude": "53.6167",
    "tgn": "1057651",
    "place": "Novodevichye",
    "id": "247",
    "type": "inhabited places",
    "longitude": "48.8333"
  },
  {
    "country": "FR",
    "place_alt": "Neuville-Saint-Vaast",
    "latitude": "50.35756",
    "tgn": "7029476",
    "place": "Neuville-Saint-Vaast",
    "id": "248",
    "type": "inhabited places",
    "longitude": "2.762612"
  },
  {
    "country": "PF",
    "place_alt": "\\N",
    "latitude": "-9.7833",
    "tgn": "1098718",
    "place": "Atuona",
    "id": "249",
    "type": "inhabited places",
    "longitude": "-139.05"
  },
  {
    "country": "UA",
    "place_alt": "\\N",
    "latitude": "44.95",
    "tgn": "7012058",
    "place": "Simferopol",
    "id": "250",
    "type": "inhabited places",
    "longitude": "34.1"
  },
  {
    "country": "NL",
    "place_alt": "\\N",
    "latitude": "52.233333",
    "tgn": "7007042",
    "place": "Hilversum",
    "id": "251",
    "type": "inhabited places",
    "longitude": "5.183333"
  },
  {
    "country": "US",
    "place_alt": "Westport, Connecticut",
    "latitude": "41.1333",
    "tgn": "7014618",
    "place": "Westport",
    "id": "252",
    "type": "inhabited places",
    "longitude": "-73.35"
  },
  {
    "country": "FR",
    "place_alt": "\\N",
    "latitude": "43.945404",
    "tgn": "7008799",
    "place": "Avignon",
    "id": "253",
    "type": "inhabited places",
    "longitude": "4.810226"
  },
  {
    "country": "GB",
    "place_alt": "Surrey",
    "latitude": "51.2",
    "tgn": "7008175",
    "place": "Surrey",
    "id": "254",
    "type": "counties",
    "longitude": "-0.05"
  },
  {
    "country": "GB",
    "place_alt": "Aldermaston",
    "latitude": "51.383333",
    "tgn": "1028280",
    "place": "Aldermaston",
    "id": "255",
    "type": "inhabited places",
    "longitude": "-1.15"
  },
  {
    "country": "FR",
    "place_alt": "\\N",
    "latitude": "48.835684",
    "tgn": "7008963",
    "place": "Boulogne-Billancourt",
    "id": "256",
    "type": "inhabited places",
    "longitude": "2.247342"
  },
  {
    "country": "FR",
    "place_alt": "\\N",
    "latitude": "43.721624",
    "tgn": "7009717",
    "place": "Vence",
    "id": "257",
    "type": "inhabited places",
    "longitude": "7.112324"
  },
  {
    "country": "NO",
    "place_alt": "Norway",
    "latitude": "62",
    "tgn": "1000088",
    "place": "Norge",
    "id": "258",
    "type": "nations",
    "longitude": "10"
  },
  {
    "country": "RU",
    "place_alt": "\\N",
    "latitude": "60.316",
    "tgn": "7029520",
    "place": "Uusikirkko",
    "id": "259",
    "type": "inhabited places",
    "longitude": "29.266"
  },
  {
    "country": "DE",
    "place_alt": "\\N",
    "latitude": "47.733333",
    "tgn": "1040809",
    "place": "Radolfzell",
    "id": "260",
    "type": "inhabited places",
    "longitude": "8.966667"
  },
  {
    "country": "CH",
    "place_alt": "Geneva",
    "latitude": "46.195602",
    "tgn": "7007279",
    "place": "Genève",
    "id": "261",
    "type": "inhabited places",
    "longitude": "6.148113"
  },
  {
    "country": "DE",
    "place_alt": "\\N",
    "latitude": "50.083333",
    "tgn": "7004432",
    "place": "Wiesbaden",
    "id": "262",
    "type": "inhabited places",
    "longitude": "8.25"
  },
  {
    "country": "FR",
    "place_alt": "\\N",
    "latitude": "43.764078",
    "tgn": "7017267",
    "place": "Roquebrune",
    "id": "263",
    "type": "inhabited places",
    "longitude": "7.482065"
  },
  {
    "country": "GB",
    "place_alt": "Fordingbridge",
    "latitude": "50.933333",
    "tgn": "1029264",
    "place": "Fordingbridge",
    "id": "264",
    "type": "inhabited places",
    "longitude": "-1.8"
  },
  {
    "country": "CH",
    "place_alt": "\\N",
    "latitude": "46.76963",
    "tgn": "4004065",
    "place": "Frauenkirch",
    "id": "265",
    "type": "inhabited places",
    "longitude": "9.786416"
  },
  {
    "country": "FR",
    "place_alt": "\\N",
    "latitude": "43.117835",
    "tgn": "1035610",
    "place": "Sanary-sur-Mer",
    "id": "266",
    "type": "inhabited places",
    "longitude": "5.800065"
  },
  {
    "country": "CH",
    "place_alt": "\\N",
    "latitude": "46.173916",
    "tgn": "7007291",
    "place": "Muralto",
    "id": "267",
    "type": "inhabited places",
    "longitude": "8.803673"
  },
  {
    "country": "CH",
    "place_alt": "\\N",
    "latitude": "46.436167",
    "tgn": "7007411",
    "place": "Montreux",
    "id": "268",
    "type": "inhabited places",
    "longitude": "6.911359"
  },
  {
    "country": "FR",
    "place_alt": "\\N",
    "latitude": "48.878888",
    "tgn": "7009452",
    "place": "Puteaux",
    "id": "269",
    "type": "inhabited places",
    "longitude": "2.239264"
  },
  {
    "country": "FR",
    "place_alt": "\\N",
    "latitude": "48.683333",
    "tgn": "7009204",
    "place": "Gif-sur-Yvette",
    "id": "270",
    "type": "inhabited places",
    "longitude": "2.133333"
  },
  {
    "country": "IT",
    "place_alt": "\\N",
    "latitude": "40.55",
    "tgn": "1043863",
    "place": "Capri",
    "id": "271",
    "type": "inhabited places",
    "longitude": "14.233333"
  },
  {
    "country": "US",
    "place_alt": "\\N",
    "latitude": "34.0333",
    "tgn": "7014328",
    "place": "Pacific Palisades",
    "id": "272",
    "type": "neighborhoods",
    "longitude": "-118.5167"
  },
  {
    "country": "FR",
    "place_alt": "\\N",
    "latitude": "42.696172",
    "tgn": "7008383",
    "place": "Perpignan",
    "id": "273",
    "type": "inhabited places",
    "longitude": "2.897098"
  },
  {
    "country": "FR",
    "place_alt": "Verdun-sur-Garonne",
    "latitude": "43.851705",
    "tgn": "7013153",
    "place": "Verdun-sur-Garonne",
    "id": "274",
    "type": "inhabited places",
    "longitude": "1.234049"
  },
  {
    "country": "DE",
    "place_alt": "\\N",
    "latitude": "50.9333",
    "tgn": "1003171",
    "place": "Köln",
    "id": "275",
    "type": "national districts",
    "longitude": "6.6667"
  },
  {
    "country": "FR",
    "place_alt": "\\N",
    "latitude": "46.130017",
    "tgn": "7009071",
    "place": "Cusset",
    "id": "276",
    "type": "inhabited places",
    "longitude": "3.459632"
  },
  {
    "country": "US",
    "place_alt": "\\N",
    "latitude": "45",
    "tgn": "7007515",
    "place": "Maine",
    "id": "277",
    "type": "states (political divisions)",
    "longitude": "-69"
  },
  {
    "country": "FR",
    "place_alt": "\\N",
    "latitude": "43.713644",
    "tgn": "7008773",
    "place": "Nice",
    "id": "278",
    "type": "inhabited places",
    "longitude": "7.25952"
  },
  {
    "country": "RU",
    "place_alt": "\\N",
    "latitude": "60",
    "tgn": "7011572",
    "place": "Leningradskaya Oblast'",
    "id": "279",
    "type": "oblasts",
    "longitude": "32"
  },
  {
    "country": "DE",
    "place_alt": "\\N",
    "latitude": "49.870556",
    "tgn": "7004428",
    "place": "Darmstadt",
    "id": "280",
    "type": "inhabited places",
    "longitude": "8.649444"
  },
  {
    "country": "BE",
    "place_alt": "\\N",
    "latitude": "50.833333",
    "tgn": "1026511",
    "place": "Ixelles",
    "id": "281",
    "type": "inhabited places",
    "longitude": "4.366667"
  },
  {
    "country": "SE",
    "place_alt": "\\N",
    "latitude": "59.3667",
    "tgn": "1063301",
    "place": "Lidingö",
    "id": "282",
    "type": "inhabited places",
    "longitude": "18.1667"
  },
  {
    "country": "BE",
    "place_alt": "Belgium",
    "latitude": "50.8333",
    "tgn": "1000063",
    "place": "België",
    "id": "283",
    "type": "nations",
    "longitude": "4"
  },
  {
    "country": "CH",
    "place_alt": "\\N",
    "latitude": "46.465264",
    "tgn": "7007491",
    "place": "Vevey",
    "id": "284",
    "type": "inhabited places",
    "longitude": "6.841168"
  },
  {
    "country": "FR",
    "place_alt": "\\N",
    "latitude": "49.076851",
    "tgn": "7009209",
    "place": "Giverny",
    "id": "285",
    "type": "inhabited places",
    "longitude": "1.529978"
  },
  {
    "country": "DE",
    "place_alt": "\\N",
    "latitude": "47.683333",
    "tgn": "7004704",
    "place": "Murnau",
    "id": "286",
    "type": "inhabited places",
    "longitude": "11.2"
  },
  {
    "country": "GB",
    "place_alt": "Colchester",
    "latitude": "51.883333",
    "tgn": "7011866",
    "place": "Colchester",
    "id": "287",
    "type": "inhabited places",
    "longitude": "0.9"
  },
  {
    "country": "GB",
    "place_alt": "Dorset",
    "latitude": "50.75",
    "tgn": "7011961",
    "place": "Dorset",
    "id": "288",
    "type": "counties",
    "longitude": "-2.333333"
  },
  {
    "country": "DE",
    "place_alt": "\\N",
    "latitude": "54.883611",
    "tgn": "4010274",
    "place": "Seebüll",
    "id": "289",
    "type": "inhabited places",
    "longitude": "8.773056"
  },
  {
    "country": "FR",
    "place_alt": "\\N",
    "latitude": "43.598726",
    "tgn": "4007565",
    "place": "Mougins",
    "id": "290",
    "type": "inhabited places",
    "longitude": "7.004343"
  },
  {
    "country": "FR",
    "place_alt": "Département de Seine-et-Marne",
    "latitude": "48.5",
    "tgn": "7002973",
    "place": "Département de Seine-et-Marne",
    "id": "291",
    "type": "departments (political divisions)",
    "longitude": "3"
  },
  {
    "country": "CZ",
    "place_alt": "Brno",
    "latitude": "49.2167",
    "tgn": "7011840",
    "place": "Brno",
    "id": "292",
    "type": "inhabited places",
    "longitude": "16.6667"
  },
  {
    "country": "FR",
    "place_alt": "\\N",
    "latitude": "43.664595",
    "tgn": "7009000",
    "place": "Cagnes-sur-Mer",
    "id": "293",
    "type": "inhabited places",
    "longitude": "7.153389"
  },
  {
    "country": "MX",
    "place_alt": "Mexico City",
    "latitude": "19.434167",
    "tgn": "7007227",
    "place": "Ciudad de México",
    "id": "294",
    "type": "inhabited places",
    "longitude": "-99.138611"
  },
  {
    "country": "FR",
    "place_alt": "\\N",
    "latitude": "48.813807",
    "tgn": "7009340",
    "place": "Meudon",
    "id": "295",
    "type": "inhabited places",
    "longitude": "2.235"
  },
  {
    "country": "DE",
    "place_alt": "Hagen im Bremischen",
    "latitude": "52.2",
    "tgn": "7013235",
    "place": "Hagen",
    "id": "296",
    "type": "inhabited places",
    "longitude": "7.983333"
  },
  {
    "country": "IT",
    "place_alt": "\\N",
    "latitude": "45.55",
    "tgn": "7005764",
    "place": "Brescia",
    "id": "297",
    "type": "inhabited places",
    "longitude": "10.25"
  },
  {
    "country": "US",
    "place_alt": "\\N",
    "latitude": "39.9667",
    "tgn": "2086761",
    "place": "Broomall",
    "id": "298",
    "type": "inhabited places",
    "longitude": "-75.35"
  },
  {
    "country": "US",
    "place_alt": "\\N",
    "latitude": "40.7333",
    "tgn": "7015851",
    "place": "Elmhurst",
    "id": "299",
    "type": "neighborhoods",
    "longitude": "-73.8667"
  },
  {
    "country": "ES",
    "place_alt": "\\N",
    "latitude": "37.183333",
    "tgn": "7007703",
    "place": "Granada",
    "id": "300",
    "type": "inhabited places",
    "longitude": "-3.6"
  },
  {
    "country": "DE",
    "place_alt": "Baden-Baden",
    "latitude": "48.75",
    "tgn": "7005172",
    "place": "Baden-Baden",
    "id": "301",
    "type": "inhabited places",
    "longitude": "8.25"
  },
  {
    "country": "US",
    "place_alt": "Los Angeles",
    "latitude": "34.05",
    "tgn": "7023900",
    "place": "Los Angeles",
    "id": "302",
    "type": "inhabited places",
    "longitude": "-118.2333"
  },
  {
    "country": "CH",
    "place_alt": "\\N",
    "latitude": "46.494546",
    "tgn": "1064302",
    "place": "Pontresina",
    "id": "303",
    "type": "inhabited places",
    "longitude": "9.90077"
  },
  {
    "country": "FR",
    "place_alt": "Département du Finistère",
    "latitude": "48.333333",
    "tgn": "7002938",
    "place": "Département du Finistère",
    "id": "304",
    "type": "departments (political divisions)",
    "longitude": "-4"
  },
  {
    "country": "FR",
    "place_alt": "\\N",
    "latitude": "48.58733",
    "tgn": "7009376",
    "place": "Morlaix",
    "id": "305",
    "type": "inhabited places",
    "longitude": "-3.825005"
  },
  {
    "country": "CH",
    "place_alt": "\\N",
    "latitude": "47.083333",
    "tgn": "7007280",
    "place": "Luzern",
    "id": "306",
    "type": "inhabited places",
    "longitude": "8.266667"
  },
  {
    "country": "FR",
    "place_alt": "Saint-Chamas",
    "latitude": "43.549464",
    "tgn": "1035284",
    "place": "Saint-Chamas",
    "id": "307",
    "type": "inhabited places",
    "longitude": "5.033244"
  },
  {
    "country": "US",
    "place_alt": "\\N",
    "latitude": "41",
    "tgn": "7013572",
    "place": "Dobbs Ferry",
    "id": "308",
    "type": "inhabited places",
    "longitude": "-73.8667"
  },
  {
    "country": "GB",
    "place_alt": "Bathampton",
    "latitude": "51.392222",
    "tgn": "7029200",
    "place": "Bathampton",
    "id": "309",
    "type": "inhabited places",
    "longitude": "-2.322222"
  },
  {
    "country": "US",
    "place_alt": "Hanover, New Hampshire",
    "latitude": "43.7",
    "tgn": "7013690",
    "place": "Hanover",
    "id": "310",
    "type": "inhabited places",
    "longitude": "-72.2833"
  },
  {
    "country": "US",
    "place_alt": "\\N",
    "latitude": "37.15",
    "tgn": "2244675",
    "place": "Cliveden",
    "id": "311",
    "type": "inhabited places",
    "longitude": "-76.5167"
  },
  {
    "country": "IL",
    "place_alt": "\\N",
    "latitude": "33.0167",
    "tgn": "1079575",
    "place": "Nahariyya",
    "id": "312",
    "type": "inhabited places",
    "longitude": "35.0833"
  },
  {
    "country": "ID",
    "place_alt": "\\N",
    "latitude": "-8.5",
    "tgn": "1001137",
    "place": "Bali",
    "id": "313",
    "type": "provinces",
    "longitude": "115"
  },
  {
    "country": "DE",
    "place_alt": "Cologne",
    "latitude": "50.933333",
    "tgn": "7004446",
    "place": "Köln",
    "id": "314",
    "type": "inhabited places",
    "longitude": "6.95"
  },
  {
    "country": "NL",
    "place_alt": "Bergen, North Holland",
    "latitude": "52.666667",
    "tgn": "7007058",
    "place": "Bergen",
    "id": "315",
    "type": "inhabited places",
    "longitude": "4.7"
  },
  {
    "country": "FR",
    "place_alt": "\\N",
    "latitude": "44.55",
    "tgn": "1033783",
    "place": "Langon",
    "id": "316",
    "type": "inhabited places",
    "longitude": "-0.25"
  },
  {
    "country": "US",
    "place_alt": "Gloucester, Massachusetts",
    "latitude": "42.6",
    "tgn": "7014073",
    "place": "Gloucester",
    "id": "317",
    "type": "inhabited places",
    "longitude": "-70.65"
  },
  {
    "country": "FR",
    "place_alt": "\\N",
    "latitude": "43.706102",
    "tgn": "7008181",
    "place": "Dax",
    "id": "318",
    "type": "inhabited places",
    "longitude": "-1.053855"
  },
  {
    "country": "CH",
    "place_alt": "\\N",
    "latitude": "46.797752",
    "tgn": "7007342",
    "place": "Davos",
    "id": "319",
    "type": "inhabited places",
    "longitude": "9.82702"
  },
  {
    "country": "MC",
    "place_alt": "\\N",
    "latitude": "43.7333",
    "tgn": "7005759",
    "place": "Monte Carlo",
    "id": "320",
    "type": "inhabited places",
    "longitude": "7.4167"
  },
  {
    "country": "FR",
    "place_alt": "\\N",
    "latitude": "49.071579",
    "tgn": "7008030",
    "place": "Auvers-sur-Oise",
    "id": "321",
    "type": "inhabited places",
    "longitude": "2.169782"
  },
  {
    "country": "NL",
    "place_alt": "\\N",
    "latitude": "51.566667",
    "tgn": "7006751",
    "place": "Domburg",
    "id": "322",
    "type": "inhabited places",
    "longitude": "3.5"
  },
  {
    "country": "CH",
    "place_alt": "\\N",
    "latitude": "46.155798",
    "tgn": "7007312",
    "place": "Ascona",
    "id": "323",
    "type": "inhabited places",
    "longitude": "8.772997"
  },
  {
    "country": "FR",
    "place_alt": "\\N",
    "latitude": "47.285604",
    "tgn": "7009248",
    "place": "Baule, la",
    "id": "324",
    "type": "inhabited places",
    "longitude": "-2.394031"
  },
  {
    "country": "US",
    "place_alt": "\\N",
    "latitude": "40.8",
    "tgn": "2069461",
    "place": "Great Neck",
    "id": "325",
    "type": "inhabited places",
    "longitude": "-73.7167"
  },
  {
    "country": "AM",
    "place_alt": "Yerevan",
    "latitude": "40.181",
    "tgn": "7012650",
    "place": "Yerevan",
    "id": "326",
    "type": "inhabited places",
    "longitude": "44.508"
  },
  {
    "country": "US",
    "place_alt": "\\N",
    "latitude": "43.9",
    "tgn": "7015765",
    "place": "Bath",
    "id": "327",
    "type": "inhabited places",
    "longitude": "-69.8167"
  },
  {
    "country": "RU",
    "place_alt": "\\N",
    "latitude": "55.75",
    "tgn": "7018215",
    "place": "Moskva",
    "id": "328",
    "type": "autonomous cities",
    "longitude": "37.583333"
  },
  {
    "country": "UA",
    "place_alt": "\\N",
    "latitude": "50.432821",
    "tgn": "7594417",
    "place": "Kyyiv, Misto",
    "id": "329",
    "type": "municipalities",
    "longitude": "30.51891"
  },
  {
    "country": "NL",
    "place_alt": "\\N",
    "latitude": "52",
    "tgn": "7003627",
    "place": "Utrecht",
    "id": "330",
    "type": "provinces",
    "longitude": "5.25"
  },
  {
    "country": "DE",
    "place_alt": "\\N",
    "latitude": "53.75",
    "tgn": "7000094",
    "place": "Mecklenburg-Vorpommern",
    "id": "331",
    "type": "states (political divisions)",
    "longitude": "12.5"
  },
  {
    "country": "GB",
    "place_alt": "\\N",
    "latitude": "53.4833",
    "tgn": "7027477",
    "place": "Manchester",
    "id": "332",
    "type": "urban districts",
    "longitude": "-2.25"
  },
  {
    "country": "BY",
    "place_alt": "\\N",
    "latitude": "53.5",
    "tgn": "7012158",
    "place": "Hrodzyenskaya Voblasts'",
    "id": "333",
    "type": "provinces",
    "longitude": "24.5"
  },
  {
    "country": "IT",
    "place_alt": "\\N",
    "latitude": "45.133333",
    "tgn": "7003154",
    "place": "Torino",
    "id": "334",
    "type": "provinces",
    "longitude": "7.366667"
  },
  {
    "country": "UA",
    "place_alt": "\\N",
    "latitude": "46.5",
    "tgn": "7011651",
    "place": "Khersons'ka Oblast'",
    "id": "335",
    "type": "oblasts",
    "longitude": "34"
  },
  {
    "country": "DE",
    "place_alt": "\\N",
    "latitude": "53.75",
    "tgn": "7003688",
    "place": "Schleswig-Holstein",
    "id": "336",
    "type": "states (political divisions)",
    "longitude": "10"
  },
  {
    "country": "LT",
    "place_alt": "\\N",
    "latitude": "55",
    "tgn": "7006562",
    "place": "Kaunas",
    "id": "337",
    "type": "municipalities",
    "longitude": "23.75"
  },
  {
    "country": "DE",
    "place_alt": "Saxony",
    "latitude": "52.8333",
    "tgn": "7003685",
    "place": "Sachsen",
    "id": "338",
    "type": "states (political divisions)",
    "longitude": "10"
  },
  {
    "country": "DE",
    "place_alt": "Baden-Württemberg",
    "latitude": "47.95",
    "tgn": "7003692",
    "place": "Baden-Württemberg",
    "id": "339",
    "type": "states (political divisions)",
    "longitude": "9.9"
  },
  {
    "country": "GB",
    "place_alt": "Brighton and Hove",
    "latitude": "50.833333",
    "tgn": "7026513",
    "place": "Brighton and Hove",
    "id": "340",
    "type": "unitary authorities",
    "longitude": "-0.133333"
  },
  {
    "country": "GB",
    "place_alt": "Kensington and Chelsea",
    "latitude": "51.45",
    "tgn": "1004847",
    "place": "Kensington and Chelsea",
    "id": "341",
    "type": "boroughs",
    "longitude": "-0.1833"
  },
  {
    "country": "HU",
    "place_alt": "\\N",
    "latitude": "47.5",
    "tgn": "7017994",
    "place": "Budapest",
    "id": "342",
    "type": "special cities",
    "longitude": "19.0833"
  },
  {
    "country": "FR",
    "place_alt": "\\N",
    "latitude": "50.466",
    "tgn": "7001097",
    "place": "Nord-Pas-de-Calais",
    "id": "343",
    "type": "regions (administrative divisions)",
    "longitude": "2.7"
  },
  {
    "country": "CH",
    "place_alt": "\\N",
    "latitude": "47.566901",
    "tgn": "7007667",
    "place": "Basel-Stadt",
    "id": "344",
    "type": "cantons (administrative bodies)",
    "longitude": "7.615195"
  },
  {
    "country": "GB",
    "place_alt": "Birmingham",
    "latitude": "52.5",
    "tgn": "7019028",
    "place": "Birmingham",
    "id": "345",
    "type": "unitary authorities",
    "longitude": "-1.9167"
  },
  {
    "country": "FR",
    "place_alt": "\\N",
    "latitude": "48.5",
    "tgn": "7002883",
    "place": "Île-de-France",
    "id": "346",
    "type": "regions (administrative divisions)",
    "longitude": "2.5"
  },
  {
    "country": "RU",
    "place_alt": "\\N",
    "latitude": "51.5",
    "tgn": "1003408",
    "place": "Saratovskaya Oblast'",
    "id": "347",
    "type": "oblasts",
    "longitude": "47"
  },
  {
    "country": "US",
    "place_alt": "\\N",
    "latitude": "41.0333",
    "tgn": "1002627",
    "place": "Mahoning",
    "id": "348",
    "type": "counties",
    "longitude": "-80.7667"
  },
  {
    "country": "CH",
    "place_alt": "\\N",
    "latitude": "47.5562",
    "tgn": "7003759",
    "place": "Thurgau",
    "id": "349",
    "type": "cantons (administrative bodies)",
    "longitude": "9.07686"
  },
  {
    "country": "BE",
    "place_alt": "\\N",
    "latitude": "50.8333",
    "tgn": "7018237",
    "place": "Brussels Hoofdstedelijk Gewest",
    "id": "350",
    "type": "regions (administrative divisions)",
    "longitude": "4.3333"
  },
  {
    "country": "CH",
    "place_alt": "\\N",
    "latitude": "46.87251",
    "tgn": "7003742",
    "place": "Bern",
    "id": "351",
    "type": "cantons (administrative bodies)",
    "longitude": "7.595628"
  },
  {
    "country": "UA",
    "place_alt": "\\N",
    "latitude": "49.5",
    "tgn": "1003361",
    "place": "Kharkivs'ka Oblast'",
    "id": "352",
    "type": "oblasts",
    "longitude": "36.5"
  },
  {
    "country": "RU",
    "place_alt": "\\N",
    "latitude": "50.75",
    "tgn": "6000729",
    "place": "Belgorodskaya Oblast’",
    "id": "353",
    "type": "oblasts",
    "longitude": "37.5"
  },
  {
    "country": "DE",
    "place_alt": "North Rhine-Westphalia",
    "latitude": "51",
    "tgn": "7003677",
    "place": "Nordrhein-Westfalen",
    "id": "354",
    "type": "states (political divisions)",
    "longitude": "7"
  },
  {
    "country": "CZ",
    "place_alt": "\\N",
    "latitude": "50.416",
    "tgn": "7593914",
    "place": "Královéhradecký Kraj",
    "id": "355",
    "type": "regions (administrative divisions)",
    "longitude": "15.916"
  },
  {
    "country": "US",
    "place_alt": "\\N",
    "latitude": "40.1167",
    "tgn": "1002782",
    "place": "Philadelphia",
    "id": "356",
    "type": "counties",
    "longitude": "-75"
  },
  {
    "country": "IT",
    "place_alt": "\\N",
    "latitude": "44.816667",
    "tgn": "1003428",
    "place": "Alessandria",
    "id": "357",
    "type": "provinces",
    "longitude": "8.7"
  },
  {
    "country": "IT",
    "place_alt": "\\N",
    "latitude": "45.966667",
    "tgn": "1003478",
    "place": "Novara",
    "id": "358",
    "type": "provinces",
    "longitude": "8.4"
  },
  {
    "country": "FR",
    "place_alt": "\\N",
    "latitude": "43.916667",
    "tgn": "7002895",
    "place": "Provence-Alpes-Côte d'Azur",
    "id": "359",
    "type": "regions (administrative divisions)",
    "longitude": "6.083333"
  },
  {
    "country": "FR",
    "place_alt": "\\N",
    "latitude": "43.533",
    "tgn": "7002885",
    "place": "Languedoc-Roussillon",
    "id": "360",
    "type": "regions (administrative divisions)",
    "longitude": "3.233"
  },
  {
    "country": "BY",
    "place_alt": "\\N",
    "latitude": "55",
    "tgn": "7011701",
    "place": "Vitsyebskaya Voblasts'",
    "id": "361",
    "type": "provinces",
    "longitude": "25.5"
  },
  {
    "country": "RU",
    "place_alt": "\\N",
    "latitude": "52",
    "tgn": "1003398",
    "place": "Orenburgskaya Oblast'",
    "id": "362",
    "type": "oblasts",
    "longitude": "56"
  },
  {
    "country": "RU",
    "place_alt": "\\N",
    "latitude": "54.5",
    "tgn": "1003377",
    "place": "Kaluzhskaya Oblast'",
    "id": "363",
    "type": "oblasts",
    "longitude": "35.5"
  },
  {
    "country": "RU",
    "place_alt": "\\N",
    "latitude": "54.75",
    "tgn": "7011565",
    "place": "Kaliningradskaya Oblast’",
    "id": "364",
    "type": "oblasts",
    "longitude": "21.5"
  },
  {
    "country": "FR",
    "place_alt": "\\N",
    "latitude": "47.2",
    "tgn": "7002881",
    "place": "Franche-Comté",
    "id": "365",
    "type": "regions (administrative divisions)",
    "longitude": "6.1"
  },
  {
    "country": "GB",
    "place_alt": "Merseyside",
    "latitude": "53.4",
    "tgn": "7029504",
    "place": "Merseyside",
    "id": "366",
    "type": "counties",
    "longitude": "-3.083333"
  },
  {
    "country": "BE",
    "place_alt": "East Flanders",
    "latitude": "51",
    "tgn": "7003457",
    "place": "Oost-Vlaanderen",
    "id": "367",
    "type": "provinces",
    "longitude": "3.75"
  },
  {
    "country": "GR",
    "place_alt": "\\N",
    "latitude": "39.25",
    "tgn": "7002751",
    "place": "Magnisía",
    "id": "368",
    "type": "regional divisions",
    "longitude": "22.75"
  },
  {
    "country": "UA",
    "place_alt": "\\N",
    "latitude": "49.5",
    "tgn": "7011666",
    "place": "Poltavs'ka Oblast'",
    "id": "369",
    "type": "oblasts",
    "longitude": "34"
  },
  {
    "country": "FR",
    "place_alt": "\\N",
    "latitude": "44.333",
    "tgn": "7002878",
    "place": "Aquitaine",
    "id": "370",
    "type": "regions (administrative divisions)",
    "longitude": "0.25"
  },
  {
    "country": "NO",
    "place_alt": "\\N",
    "latitude": "59.9",
    "tgn": "7003650",
    "place": "Oslo",
    "id": "371",
    "type": "counties",
    "longitude": "10.716"
  },
  {
    "country": "US",
    "place_alt": "\\N",
    "latitude": "42.8667",
    "tgn": "1002747",
    "place": "Ontario",
    "id": "372",
    "type": "counties",
    "longitude": "-77.3167"
  },
  {
    "country": "GB",
    "place_alt": "Windsor and Maidenhead",
    "latitude": "51.4667",
    "tgn": "7026243",
    "place": "Windsor and Maidenhead",
    "id": "373",
    "type": "unitary authorities",
    "longitude": "-0.6167"
  },
  {
    "country": "FR",
    "place_alt": "\\N",
    "latitude": "49.416667",
    "tgn": "7002882",
    "place": "Haute-Normandie",
    "id": "374",
    "type": "regions (administrative divisions)",
    "longitude": "1"
  },
  {
    "country": "SE",
    "place_alt": "\\N",
    "latitude": "63",
    "tgn": "7003773",
    "place": "Jämtland",
    "id": "375",
    "type": "counties",
    "longitude": "14.666667"
  },
  {
    "country": "BE",
    "place_alt": "West Flanders",
    "latitude": "51",
    "tgn": "7003458",
    "place": "West-Vlaanderen",
    "id": "376",
    "type": "provinces",
    "longitude": "3"
  },
  {
    "country": "US",
    "place_alt": "\\N",
    "latitude": "43",
    "tgn": "7007568",
    "place": "New York",
    "id": "377",
    "type": "states (political divisions)",
    "longitude": "-75"
  },
  {
    "country": "NO",
    "place_alt": "\\N",
    "latitude": "63",
    "tgn": "1000440",
    "place": "Sør-Trøndelag",
    "id": "378",
    "type": "counties",
    "longitude": "10.6667"
  },
  {
    "country": "GB",
    "place_alt": "Newcastle upon Tyne",
    "latitude": "55",
    "tgn": "7019073",
    "place": "Newcastle upon Tyne",
    "id": "379",
    "type": "urban districts",
    "longitude": "-1.5833"
  },
  {
    "country": "PL",
    "place_alt": "\\N",
    "latitude": "53.25",
    "tgn": "7024117",
    "place": "Podlaskie",
    "id": "380",
    "type": "voivodeships",
    "longitude": "23"
  },
  {
    "country": "RU",
    "place_alt": "\\N",
    "latitude": "55.75",
    "tgn": "7011573",
    "place": "Moskovskaya Oblast'",
    "id": "381",
    "type": "oblasts",
    "longitude": "37.5"
  },
  {
    "country": "LT",
    "place_alt": "\\N",
    "latitude": "54.9",
    "tgn": "7006618",
    "place": "Vilnius",
    "id": "382",
    "type": "municipalities",
    "longitude": "25.4"
  },
  {
    "country": "CZ",
    "place_alt": "\\N",
    "latitude": "50.083",
    "tgn": "7593923",
    "place": "Praha, Hlavní Město",
    "id": "383",
    "type": "special cities",
    "longitude": "14.466"
  },
  {
    "country": "RU",
    "place_alt": "\\N",
    "latitude": "56",
    "tgn": "1003373",
    "place": "Irkutskaya Oblast'",
    "id": "384",
    "type": "oblasts",
    "longitude": "106"
  },
  {
    "country": "FI",
    "place_alt": "\\N",
    "latitude": "61.333333",
    "tgn": "7594393",
    "place": "Satakunta",
    "id": "385",
    "type": "regions (administrative divisions)",
    "longitude": "22"
  },
  {
    "country": "FR",
    "place_alt": "\\N",
    "latitude": "47.5",
    "tgn": "7002877",
    "place": "Centre",
    "id": "386",
    "type": "regions (administrative divisions)",
    "longitude": "1.75"
  },
  {
    "country": "NL",
    "place_alt": "South Holland",
    "latitude": "52",
    "tgn": "7003632",
    "place": "Zuid-Holland",
    "id": "387",
    "type": "provinces",
    "longitude": "4.666"
  },
  {
    "country": "GB",
    "place_alt": "Somerset",
    "latitude": "51.083333",
    "tgn": "7012032",
    "place": "Somerset",
    "id": "388",
    "type": "counties",
    "longitude": "-3"
  },
  {
    "country": "RU",
    "place_alt": "\\N",
    "latitude": "54",
    "tgn": "1003418",
    "place": "Tul’skaya Oblast’",
    "id": "389",
    "type": "oblasts",
    "longitude": "37.5"
  },
  {
    "country": "ES",
    "place_alt": "\\N",
    "latitude": "40.4",
    "tgn": "7010420",
    "place": "Madrid",
    "id": "390",
    "type": "provinces",
    "longitude": "-3.6833"
  },
  {
    "country": "UA",
    "place_alt": "\\N",
    "latitude": "51",
    "tgn": "1003410",
    "place": "Sums'ka Oblast'",
    "id": "391",
    "type": "oblasts",
    "longitude": "34"
  },
  {
    "country": "SE",
    "place_alt": "\\N",
    "latitude": "59.5",
    "tgn": "7003777",
    "place": "Stockholm",
    "id": "392",
    "type": "counties",
    "longitude": "18"
  },
  {
    "country": "PL",
    "place_alt": "\\N",
    "latitude": "52.25",
    "tgn": "7024122",
    "place": "Mazowieckie",
    "id": "393",
    "type": "voivodeships",
    "longitude": "21"
  },
  {
    "country": "US",
    "place_alt": "\\N",
    "latitude": "39.1833",
    "tgn": "1002441",
    "place": "Hamilton",
    "id": "394",
    "type": "counties",
    "longitude": "-84.5333"
  },
  {
    "country": "FR",
    "place_alt": "\\N",
    "latitude": "48.75",
    "tgn": "7002880",
    "place": "Champagne-Ardenne",
    "id": "395",
    "type": "regions (administrative divisions)",
    "longitude": "4.5"
  },
  {
    "country": "SE",
    "place_alt": "\\N",
    "latitude": "63",
    "tgn": "1000466",
    "place": "Västernorrland",
    "id": "396",
    "type": "counties",
    "longitude": "17.5"
  },
  {
    "country": "CZ",
    "place_alt": "\\N",
    "latitude": "49.75",
    "tgn": "7593917",
    "place": "Olomoucký Kraj",
    "id": "397",
    "type": "regions (administrative divisions)",
    "longitude": "17.166"
  },
  {
    "country": "US",
    "place_alt": "\\N",
    "latitude": "41.1667",
    "tgn": "1002833",
    "place": "Rockland",
    "id": "398",
    "type": "counties",
    "longitude": "-74.05"
  },
  {
    "country": "CH",
    "place_alt": "\\N",
    "latitude": "47.416667",
    "tgn": "7003765",
    "place": "Zürich",
    "id": "399",
    "type": "cantons (administrative bodies)",
    "longitude": "8.666667"
  },
  {
    "country": "RU",
    "place_alt": "\\N",
    "latitude": "57.009",
    "tgn": "7012941",
    "place": "Tverskaya Oblast'",
    "id": "400",
    "type": "oblasts",
    "longitude": "35.005"
  },
  {
    "country": "CH",
    "place_alt": "\\N",
    "latitude": "46.990867",
    "tgn": "7003751",
    "place": "Neuchâtel",
    "id": "401",
    "type": "cantons (administrative bodies)",
    "longitude": "6.797675"
  },
  {
    "country": "GB",
    "place_alt": "Pembrokeshire",
    "latitude": "51.6667",
    "tgn": "7018993",
    "place": "Pembrokeshire",
    "id": "402",
    "type": "unitary authorities",
    "longitude": "-4.9167"
  },
  {
    "country": "PL",
    "place_alt": "\\N",
    "latitude": "49.75",
    "tgn": "7024127",
    "place": "Małopolskie",
    "id": "403",
    "type": "voivodeships",
    "longitude": "20.5"
  },
  {
    "country": "AT",
    "place_alt": "Austria",
    "latitude": "47.3333",
    "tgn": "1000062",
    "place": "Österreich",
    "id": "404",
    "type": "nations",
    "longitude": "13.3333"
  },
  {
    "country": "AT",
    "place_alt": "\\N",
    "latitude": "48.3333",
    "tgn": "7003025",
    "place": "Niederösterreich",
    "id": "405",
    "type": "states (political divisions)",
    "longitude": "15.75"
  },
  {
    "country": "UA",
    "place_alt": "\\N",
    "latitude": "48",
    "tgn": "7012076",
    "place": "Donets'ka Oblast'",
    "id": "406",
    "type": "oblasts",
    "longitude": "37.5"
  },
  {
    "country": "CZ",
    "place_alt": "\\N",
    "latitude": "50.5",
    "tgn": "7593920",
    "place": "Ústecký Kraj",
    "id": "407",
    "type": "regions (administrative divisions)",
    "longitude": "13.833"
  },
  {
    "country": "RU",
    "place_alt": "\\N",
    "latitude": "51",
    "tgn": "1003424",
    "place": "Voronezhskaya Oblast'",
    "id": "408",
    "type": "oblasts",
    "longitude": "40.5"
  },
  {
    "country": "AU",
    "place_alt": "\\N",
    "latitude": "-30",
    "tgn": "7001831",
    "place": "South Australia",
    "id": "409",
    "type": "states (political divisions)",
    "longitude": "135"
  },
  {
    "country": "MD",
    "place_alt": "\\N",
    "latitude": "47.366667",
    "tgn": "7594267",
    "place": "Stînga Nistrului",
    "id": "410",
    "type": "territories",
    "longitude": "29.25"
  },
  {
    "country": "FR",
    "place_alt": "\\N",
    "latitude": "48.933",
    "tgn": "7002872",
    "place": "Basse-Normandie",
    "id": "411",
    "type": "regions (administrative divisions)",
    "longitude": "-0.533"
  },
  {
    "country": "CA",
    "place_alt": "\\N",
    "latitude": "45",
    "tgn": "7005802",
    "place": "Nova Scotia",
    "id": "412",
    "type": "provinces",
    "longitude": "-63"
  },
  {
    "country": "DE",
    "place_alt": "\\N",
    "latitude": "52.5",
    "tgn": "7003670",
    "place": "Berlin",
    "id": "413",
    "type": "states (political divisions)",
    "longitude": "13.4167"
  },
  {
    "country": "CZ",
    "place_alt": "\\N",
    "latitude": "50.75",
    "tgn": "7593915",
    "place": "Liberecký Kraj",
    "id": "414",
    "type": "regions (administrative divisions)",
    "longitude": "15"
  },
  {
    "country": "US",
    "place_alt": "\\N",
    "latitude": "40.8667",
    "tgn": "1002729",
    "place": "Northampton",
    "id": "415",
    "type": "counties",
    "longitude": "-75.25"
  },
  {
    "country": "NO",
    "place_alt": "\\N",
    "latitude": "60.25",
    "tgn": "7003646",
    "place": "Hordaland",
    "id": "416",
    "type": "counties",
    "longitude": "6"
  },
  {
    "country": "US",
    "place_alt": "\\N",
    "latitude": "\\N",
    "tgn": "2002201",
    "place": "Charlottesville",
    "id": "417",
    "type": "independent cities",
    "longitude": "\\N"
  },
  {
    "country": "US",
    "place_alt": "Bergen County, New Jersey",
    "latitude": "40.9333",
    "tgn": "1002178",
    "place": "Bergen",
    "id": "418",
    "type": "counties",
    "longitude": "-74.05"
  },
  {
    "country": "IT",
    "place_alt": "\\N",
    "latitude": "45.833333",
    "tgn": "7002996",
    "place": "Treviso",
    "id": "419",
    "type": "provinces",
    "longitude": "12.216667"
  },
  {
    "country": "RU",
    "place_alt": "\\N",
    "latitude": "56",
    "tgn": "7011585",
    "place": "Nizhegorodskaya Oblast’",
    "id": "420",
    "type": "oblasts",
    "longitude": "45"
  },
  {
    "country": "CZ",
    "place_alt": "Czech Republic",
    "latitude": "49.75",
    "tgn": "1001780",
    "place": "Česko",
    "id": "421",
    "type": "nations",
    "longitude": "15"
  },
  {
    "country": "FR",
    "place_alt": "\\N",
    "latitude": "47.5",
    "tgn": "7002893",
    "place": "Pays de la Loire",
    "id": "422",
    "type": "regions (administrative divisions)",
    "longitude": "0.833"
  },
  {
    "country": "US",
    "place_alt": "\\N",
    "latitude": "42.9333",
    "tgn": "1002624",
    "place": "Madison",
    "id": "423",
    "type": "counties",
    "longitude": "-75.65"
  },
  {
    "country": "SE",
    "place_alt": "\\N",
    "latitude": "56.6667",
    "tgn": "1000405",
    "place": "Kronoberg",
    "id": "424",
    "type": "counties",
    "longitude": "14.6667"
  },
  {
    "country": "IT",
    "place_alt": "\\N",
    "latitude": "43.233333",
    "tgn": "7003164",
    "place": "Livorno",
    "id": "425",
    "type": "provinces",
    "longitude": "10.583333"
  },
  {
    "country": "PL",
    "place_alt": "\\N",
    "latitude": "50.5",
    "tgn": "7024124",
    "place": "Opolskie",
    "id": "426",
    "type": "voivodeships",
    "longitude": "18"
  },
  {
    "country": "NO",
    "place_alt": "\\N",
    "latitude": "61.5",
    "tgn": "7003643",
    "place": "Hedmark",
    "id": "427",
    "type": "counties",
    "longitude": "11.75"
  },
  {
    "country": "ES",
    "place_alt": "\\N",
    "latitude": "41.666",
    "tgn": "7002808",
    "place": "Barcelona",
    "id": "428",
    "type": "provinces",
    "longitude": "2"
  },
  {
    "country": "BG",
    "place_alt": "\\N",
    "latitude": "43.816",
    "tgn": "7593876",
    "place": "Vidin",
    "id": "429",
    "type": "provinces",
    "longitude": "22.716"
  },
  {
    "country": "ES",
    "place_alt": "\\N",
    "latitude": "36.8",
    "tgn": "7002830",
    "place": "Málaga",
    "id": "430",
    "type": "provinces",
    "longitude": "-4.75"
  },
  {
    "country": "GE",
    "place_alt": "\\N",
    "latitude": "41.75",
    "tgn": "7594770",
    "place": "K’akheti",
    "id": "431",
    "type": "regions (administrative divisions)",
    "longitude": "45.716667"
  },
  {
    "country": "DZ",
    "place_alt": "\\N",
    "latitude": "36.75",
    "tgn": "1000598",
    "place": "Alger",
    "id": "432",
    "type": "provinces",
    "longitude": "3.166"
  },
  {
    "country": "CA",
    "place_alt": "Newfoundland and Labrador",
    "latitude": "52",
    "tgn": "7005801",
    "place": "Newfoundland and Labrador",
    "id": "433",
    "type": "provinces",
    "longitude": "-56"
  },
  {
    "country": "DE",
    "place_alt": "Rhineland Palatinate",
    "latitude": "50",
    "tgn": "7003682",
    "place": "Rheinland-Pfalz",
    "id": "434",
    "type": "states (political divisions)",
    "longitude": "7"
  },
  {
    "country": "IT",
    "place_alt": "\\N",
    "latitude": "46.716667",
    "tgn": "1003440",
    "place": "Bolzano",
    "id": "435",
    "type": "provinces",
    "longitude": "11.5"
  },
  {
    "country": "FR",
    "place_alt": "\\N",
    "latitude": "45.5",
    "tgn": "7002897",
    "place": "Rhône-Alpes",
    "id": "436",
    "type": "regions (administrative divisions)",
    "longitude": "5.333333"
  },
  {
    "country": "FR",
    "place_alt": "\\N",
    "latitude": "45.766",
    "tgn": "7001095",
    "place": "Limousin",
    "id": "437",
    "type": "regions (administrative divisions)",
    "longitude": "1.7"
  },
  {
    "country": "HU",
    "place_alt": "\\N",
    "latitude": "46.4167",
    "tgn": "1000448",
    "place": "Somogy",
    "id": "438",
    "type": "counties",
    "longitude": "17.5833"
  },
  {
    "country": "MX",
    "place_alt": "\\N",
    "latitude": "21",
    "tgn": "7005584",
    "place": "Guanajuato",
    "id": "439",
    "type": "states (political divisions)",
    "longitude": "-101"
  },
  {
    "country": "DE",
    "place_alt": "Lower Saxony",
    "latitude": "52.6667",
    "tgn": "7003676",
    "place": "Niedersachsen",
    "id": "440",
    "type": "states (political divisions)",
    "longitude": "9"
  },
  {
    "country": "BE",
    "place_alt": "\\N",
    "latitude": "50.333333",
    "tgn": "7003466",
    "place": "Namur",
    "id": "441",
    "type": "provinces",
    "longitude": "4.833333"
  },
  {
    "country": "IT",
    "place_alt": "\\N",
    "latitude": "45.583333",
    "tgn": "7003006",
    "place": "Venezia",
    "id": "442",
    "type": "provinces",
    "longitude": "12.566667"
  },
  {
    "country": "US",
    "place_alt": "\\N",
    "latitude": "41.8333",
    "tgn": "1002201",
    "place": "Bristol",
    "id": "443",
    "type": "counties",
    "longitude": "-71.1667"
  },
  {
    "country": "SE",
    "place_alt": "\\N",
    "latitude": "58",
    "tgn": "7024620",
    "place": "Västra Götaland",
    "id": "444",
    "type": "counties",
    "longitude": "13"
  },
  {
    "country": "AZ",
    "place_alt": "\\N",
    "latitude": "39.2",
    "tgn": "7594532",
    "place": "Naxçıvan",
    "id": "445",
    "type": "special cities",
    "longitude": "45.416667"
  },
  {
    "country": "IT",
    "place_alt": "\\N",
    "latitude": "46.133333",
    "tgn": "7003158",
    "place": "Trento",
    "id": "446",
    "type": "provinces",
    "longitude": "11.116667"
  },
  {
    "country": "US",
    "place_alt": "\\N",
    "latitude": "41.3667",
    "tgn": "1002286",
    "place": "Clinton",
    "id": "447",
    "type": "counties",
    "longitude": "-77.8667"
  },
  {
    "country": "GB",
    "place_alt": "Calderdale",
    "latitude": "53.75",
    "tgn": "1003573",
    "place": "Calderdale",
    "id": "448",
    "type": "boroughs",
    "longitude": "-2"
  },
  {
    "country": "PL",
    "place_alt": "\\N",
    "latitude": "52.25",
    "tgn": "7024119",
    "place": "Wielkopolskie",
    "id": "449",
    "type": "voivodeships",
    "longitude": "17"
  },
  {
    "country": "IT",
    "place_alt": "\\N",
    "latitude": "40.583333",
    "tgn": "1003489",
    "place": "Potenza",
    "id": "450",
    "type": "provinces",
    "longitude": "15.733333"
  },
  {
    "country": "RU",
    "place_alt": "\\N",
    "latitude": "55",
    "tgn": "7011599",
    "place": "Smolenskaya Oblast’",
    "id": "451",
    "type": "oblasts",
    "longitude": "33"
  },
  {
    "country": "FR",
    "place_alt": "\\N",
    "latitude": "43.75",
    "tgn": "7002889",
    "place": "Midi-Pyrénées",
    "id": "452",
    "type": "regions (administrative divisions)",
    "longitude": "1.5"
  },
  {
    "country": "RU",
    "place_alt": "\\N",
    "latitude": "52.5",
    "tgn": "7011575",
    "place": "Lipetskaya Oblast'",
    "id": "453",
    "type": "oblasts",
    "longitude": "39"
  },
  {
    "country": "RU",
    "place_alt": "\\N",
    "latitude": "52.75",
    "tgn": "1003417",
    "place": "Tambovskaya Oblast'",
    "id": "454",
    "type": "oblasts",
    "longitude": "41.5"
  },
  {
    "country": "CH",
    "place_alt": "\\N",
    "latitude": "46.616707",
    "tgn": "7003763",
    "place": "Vaud",
    "id": "455",
    "type": "cantons (administrative bodies)",
    "longitude": "6.644957"
  },
  {
    "country": "BE",
    "place_alt": "\\N",
    "latitude": "51.166667",
    "tgn": "7003456",
    "place": "Antwerpen",
    "id": "456",
    "type": "provinces",
    "longitude": "4.833333"
  },
  {
    "country": "NL",
    "place_alt": "North Brabant",
    "latitude": "51.666",
    "tgn": "7003624",
    "place": "Noord-Brabant",
    "id": "457",
    "type": "provinces",
    "longitude": "5"
  },
  {
    "country": "RU",
    "place_alt": "\\N",
    "latitude": "56",
    "tgn": "6004412",
    "place": "Omskaya Oblast’",
    "id": "458",
    "type": "oblasts",
    "longitude": "73"
  },
  {
    "country": "FR",
    "place_alt": "Burgundy",
    "latitude": "47.25",
    "tgn": "7002875",
    "place": "Bourgogne",
    "id": "459",
    "type": "regions (administrative divisions)",
    "longitude": "4.166"
  },
  {
    "country": "GB",
    "place_alt": "Kirklees",
    "latitude": "53.5833",
    "tgn": "1003611",
    "place": "Kirklees",
    "id": "460",
    "type": "unitary authorities",
    "longitude": "-1.8333"
  },
  {
    "country": "RU",
    "place_alt": "\\N",
    "latitude": "57.333",
    "tgn": "1003413",
    "place": "Tyumenskaya Oblast'",
    "id": "461",
    "type": "oblasts",
    "longitude": "68.5"
  },
  {
    "country": "US",
    "place_alt": "\\N",
    "latitude": "42.5",
    "tgn": "1002665",
    "place": "Middlesex",
    "id": "462",
    "type": "counties",
    "longitude": "-71.3333"
  },
  {
    "country": "GE",
    "place_alt": "\\N",
    "latitude": "\\N",
    "tgn": "7594766",
    "place": "lost & found/Georgia",
    "id": "463",
    "type": "miscellaneous",
    "longitude": "\\N"
  },
  {
    "country": "LT",
    "place_alt": "\\N",
    "latitude": "55.166",
    "tgn": "7006560",
    "place": "Jurbarkas",
    "id": "464",
    "type": "municipalities",
    "longitude": "22.766"
  },
  {
    "country": "SE",
    "place_alt": "\\N",
    "latitude": "61",
    "tgn": "1000403",
    "place": "Dalarna",
    "id": "465",
    "type": "counties",
    "longitude": "14.5"
  },
  {
    "country": "CZ",
    "place_alt": "\\N",
    "latitude": "49.416",
    "tgn": "7593921",
    "place": "Vysočina",
    "id": "466",
    "type": "regions (administrative divisions)",
    "longitude": "15.5"
  },
  {
    "country": "IT",
    "place_alt": "\\N",
    "latitude": "41.966667",
    "tgn": "7003138",
    "place": "Roma",
    "id": "467",
    "type": "provinces",
    "longitude": "12.666667"
  },
  {
    "country": "IT",
    "place_alt": "\\N",
    "latitude": "43.216667",
    "tgn": "7003168",
    "place": "Siena",
    "id": "468",
    "type": "provinces",
    "longitude": "11.4"
  },
  {
    "country": "IT",
    "place_alt": "\\N",
    "latitude": "43.833333",
    "tgn": "7003163",
    "place": "Firenze",
    "id": "469",
    "type": "provinces",
    "longitude": "11.333333"
  },
  {
    "country": "BE",
    "place_alt": "\\N",
    "latitude": "50.916667",
    "tgn": "7018239",
    "place": "Vlaams-Brabant",
    "id": "470",
    "type": "provinces",
    "longitude": "4.583333"
  },
  {
    "country": "US",
    "place_alt": "\\N",
    "latitude": "40.8667",
    "tgn": "1002924",
    "place": "Suffolk",
    "id": "471",
    "type": "counties",
    "longitude": "-72.8"
  },
  {
    "country": "IT",
    "place_alt": "\\N",
    "latitude": "45.5",
    "tgn": "7003150",
    "place": "Milano",
    "id": "472",
    "type": "provinces",
    "longitude": "9.5"
  },
  {
    "country": "DE",
    "place_alt": "Hamburg",
    "latitude": "53.5833",
    "tgn": "7003673",
    "place": "Hamburg",
    "id": "473",
    "type": "states (political divisions)",
    "longitude": "10"
  },
  {
    "country": "GB",
    "place_alt": "Kent",
    "latitude": "51.166667",
    "tgn": "7008153",
    "place": "Kent",
    "id": "474",
    "type": "counties",
    "longitude": "0.666667"
  },
  {
    "country": "RU",
    "place_alt": "\\N",
    "latitude": "53",
    "tgn": "1003407",
    "place": "Samarskaya Oblast’",
    "id": "475",
    "type": "oblasts",
    "longitude": "50"
  },
  {
    "country": "PF",
    "place_alt": "French Polynesia",
    "latitude": "-15",
    "tgn": "1000216",
    "place": "Polynésie française",
    "id": "476",
    "type": "dependent states",
    "longitude": "-140"
  },
  {
    "country": "UA",
    "place_alt": "\\N",
    "latitude": "45",
    "tgn": "1003381",
    "place": "Krym, Avtonomna Respublika",
    "id": "477",
    "type": "autonomous republics",
    "longitude": "34"
  },
  {
    "country": "US",
    "place_alt": "\\N",
    "latitude": "41.2667",
    "tgn": "1002366",
    "place": "Fairfield",
    "id": "478",
    "type": "counties",
    "longitude": "-73.3167"
  },
  {
    "country": "GB",
    "place_alt": "West Berkshire",
    "latitude": "51.416667",
    "tgn": "7026382",
    "place": "West Berkshire",
    "id": "479",
    "type": "unitary authorities",
    "longitude": "-1.25"
  },
  {
    "country": "CH",
    "place_alt": "\\N",
    "latitude": "46.196732",
    "tgn": "7003746",
    "place": "Genève",
    "id": "480",
    "type": "cantons (administrative bodies)",
    "longitude": "6.110443"
  },
  {
    "country": "DE",
    "place_alt": "Hesse",
    "latitude": "50.5",
    "tgn": "7003678",
    "place": "Hessen",
    "id": "481",
    "type": "states (political divisions)",
    "longitude": "9.25"
  },
  {
    "country": "GB",
    "place_alt": "Hampshire",
    "latitude": "51.083333",
    "tgn": "7008139",
    "place": "Hampshire",
    "id": "482",
    "type": "counties",
    "longitude": "-1.166667"
  },
  {
    "country": "CH",
    "place_alt": "\\N",
    "latitude": "46.658705",
    "tgn": "7003748",
    "place": "Graubünden",
    "id": "483",
    "type": "cantons (administrative bodies)",
    "longitude": "9.622962"
  },
  {
    "country": "CH",
    "place_alt": "\\N",
    "latitude": "46.284545",
    "tgn": "7004723",
    "place": "Ticino",
    "id": "484",
    "type": "cantons (administrative bodies)",
    "longitude": "8.790648"
  },
  {
    "country": "IT",
    "place_alt": "\\N",
    "latitude": "40.55",
    "tgn": "7006855",
    "place": "Capri, Isola di",
    "id": "485",
    "type": "islands (landforms)",
    "longitude": "14.216667"
  },
  {
    "country": "FR",
    "place_alt": "\\N",
    "latitude": "48.766",
    "tgn": "7002888",
    "place": "Lorraine",
    "id": "486",
    "type": "regions (administrative divisions)",
    "longitude": "6.133"
  },
  {
    "country": "FR",
    "place_alt": "\\N",
    "latitude": "45.666",
    "tgn": "7002871",
    "place": "Auvergne",
    "id": "487",
    "type": "regions (administrative divisions)",
    "longitude": "3.166"
  },
  {
    "country": "US",
    "place_alt": "United States",
    "latitude": "38",
    "tgn": "7012149",
    "place": "United States",
    "id": "488",
    "type": "nations",
    "longitude": "-98"
  },
  {
    "country": "GB",
    "place_alt": "Essex",
    "latitude": "51.5833",
    "tgn": "7008131",
    "place": "Essex",
    "id": "489",
    "type": "counties",
    "longitude": "0.55"
  },
  {
    "country": "CZ",
    "place_alt": "\\N",
    "latitude": "49.1667",
    "tgn": "1003523",
    "place": "Jihomoravský Kraj",
    "id": "490",
    "type": "regions (administrative divisions)",
    "longitude": "16.583"
  },